Address,Latitude,Longitude,business_location
2449 23rd St San Francisco,37.7543184,-122.404356,"(37.7543184, -122.404356)"
909 Grant Ave San Francisco,37.7953322,-122.4066419,"(37.7953322, -122.4066419)"
4516 Mission St San Francisco,37.725687,-122.434407,"(37.725687, -122.434407)"
1001 South Van Ness Ave San Francisco,37.7570446,-122.4164587,"(37.7570446, -122.4164587)"
876 Geary St San Francisco,37.7863106,-122.4176875,"(37.7863106, -122.4176875)"
Off The Grid San Francisco,37.8067864,-122.4314179,"(37.8067864, -122.4314179)"
1055 Ellis St San Francisco,37.7832611,-122.4233234,"(37.7832611, -122.4233234)"
4251 A 18th St San Francisco,37.7606269,-122.4368867,"(37.7606269, -122.4368867)"
2950 21st St San Francisco,37.757592,-122.413616,"(37.757592, -122.413616)"
464 Broadway St San Francisco,37.7982921,-122.4049285,"(37.7982921, -122.4049285)"
244 Clement St San Francisco,37.7833136,-122.4618978,"(37.7833136, -122.4618978)"
24 WILLIE MAYS PLAZA San Francisco,37.7785351,-122.3894833,"(37.7785351, -122.3894833)"
726 Clement St San Francisco,37.7830045,-122.46714,"(37.7830045, -122.46714)"
1039 Stockton St San Francisco,37.7955581,-122.4084737,"(37.7955581, -122.4084737)"
85 Bartlett St San Francisco,37.755676,-122.4196146,"(37.755676, -122.4196146)"
498 09th St Ste. C San Francisco,37.771286,-122.4088857,"(37.771286, -122.4088857)"
2066 Chestnut St San Francisco,37.8008363,-122.4377145,"(37.8008363, -122.4377145)"
3414 22nd St San Francisco,37.7552528,-122.4235786,"(37.7552528, -122.4235786)"
3870 24th St San Francisco,37.7518102,-122.4291111,"(37.7518102, -122.4291111)"
1690 Valencia St San Francisco,37.745877,-122.420391,"(37.745877, -122.420391)"
500 Parnassus Ave San Francisco,37.7638367,-122.4584644,"(37.7638367, -122.4584644)"
822 Irving St San Francisco,37.7641859,-122.4668041,"(37.7641859, -122.4668041)"
661 Divisadero St San Francisco,37.7757588,-122.4382707,"(37.7757588, -122.4382707)"
24 Wiilie Mays Pl #120 San Francisco,37.7785351,-122.3894833,"(37.7785351, -122.3894833)"
131 Lenox Way San Francisco,37.7412174,-122.4655661,"(37.7412174, -122.4655661)"
142 McAllister St San Francisco,37.7809346,-122.4144381,"(37.7809345999999, -122.4144381)"
501 Buckingham Way San Francisco,37.7297407,-122.4790729,"(37.7297407, -122.4790729)"
3251 20th Ave 250K San Francisco,37.7278702,-122.4770819,"(37.7278702, -122.4770819)"
1706 Church St San Francisco,37.7434741,-122.4269909,"(37.7434741, -122.4269909)"
333 Market St San Francisco,37.7915342,-122.3976135,"(37.7915342, -122.3976135)"
425 Battery St San Francisco,37.7952483,-122.4006197,"(37.7952483, -122.4006197)"
403 Irving St San Francisco,37.7640816,-122.4623426,"(37.7640816, -122.4623426)"
2531 San Bruno Ave San Francisco,37.7297774,-122.4043824,"(37.7297774, -122.4043824)"
503 Clement St San Francisco,37.7828277,-122.4645816,"(37.7828277, -122.4645816)"
24 Willie Mays Plaza San Francisco,37.7785351,-122.3894833,"(37.7785351, -122.3894833)"
1210 Stockton St San Francisco,37.7969741,-122.4083876,"(37.7969741, -122.4083876)"
100 Van Ness Ave #A San Francisco,37.776731,-122.4192514,"(37.776731, -122.4192514)"
2241 Judah St San Francisco,37.7610892,-122.4863175,"(37.7610892, -122.4863175)"
920 Sutter St San Francisco,37.7885238,-122.4154548,"(37.7885238, -122.4154548)"
652 Pacific Ave San Francisco,37.7970487,-122.4065651,"(37.7970487, -122.4065651)"
1654 Haight St San Francisco,37.7698824,-122.4495227,"(37.7698824, -122.4495227)"
2436 Clement St San Francisco,37.7822403,-122.4855489,"(37.7822403, -122.4855489)"
4207 Geary Blvd San Francisco,37.7807388,-122.4645023,"(37.7807388, -122.4645023)"
173 Eddy St San Francisco,37.7841182,-122.4104099,"(37.7841182, -122.4104099)"
1400 California St San Francisco,37.7912111,-122.4177506,"(37.7912111, -122.4177506)"
717 Battery St Basement San Francisco,37.7979212,-122.401301,"(37.7979212, -122.401301)"
1042 Larkin St San Francisco,37.7877518,-122.4181878,"(37.7877518, -122.4181878)"
1051 Market St San Francisco,37.7811134,-122.4111017,"(37.7811134, -122.4111017)"
2339 Noriega St San Francisco,37.7535463,-122.4889448,"(37.7535463, -122.4889448)"
133 6th St San Francisco,37.7805578,-122.4081901,"(37.7805578, -122.4081901)"
45 CONKLING St San Francisco,37.7359038,-122.4017965,"(37.7359038, -122.4017965)"
5937 Geary Blvd San Francisco,37.780077,-122.483303,"(37.780077, -122.483303)"
2460 San Bruno Ave San Francisco,37.7308684,-122.4052257,"(37.7308684, -122.4052257)"
200 Columbus St San Francisco,37.7972852,-122.4055641,"(37.7972852, -122.4055641)"
977 A North Point St San Francisco,37.8051891,-122.4231935,"(37.8051891, -122.4231935)"
2325 Pine St San Francisco,37.7877144,-122.4340879,"(37.7877144, -122.4340879)"
135 04th St San Francisco,37.7842717,-122.4031587,"(37.7842717, -122.4031587)"
2181 Irving St San Francisco,37.7631492,-122.481217,"(37.7631492, -122.481217)"
65 Post St San Francisco,37.7888479,-122.4031082,"(37.7888479, -122.4031082)"
235 2nd St San Francisco,37.7865115,-122.3970376,"(37.7865115, -122.3970376)"
501 O'Farrell St San Francisco,37.7856451,-122.4132122,"(37.7856451, -122.4132122)"
1548 Ocean Ave San Francisco,37.7247201,-122.4590121,"(37.7247201, -122.4590121)"
590 Valencia St San Francisco,37.7635078,-122.4220973,"(37.7635078, -122.4220973)"
449 Powell St 2nd Floor San Francisco,37.7889961,-122.4088529,"(37.7889961, -122.4088529)"
1101 Stockton St San Francisco,37.7959083,-122.4085072,"(37.7959083, -122.4085072)"
500 Post St San Francisco,37.7883396,-122.4103029,"(37.7883396, -122.4103029)"
100 Connecticut St San Francisco,37.7649527,-122.3980695,"(37.7649526999999, -122.3980695)"
100 06th St San Francisco,37.780721,-122.4087908,"(37.780721, -122.4087908)"
401 Balboa St San Francisco,37.7771336,-122.4631165,"(37.7771336, -122.4631165)"
34 Mason St San Francisco,37.7839519,-122.4090592,"(37.7839519, -122.4090592)"
2080 Chestnut St San Francisco,37.8008551,-122.4379042,"(37.8008551, -122.4379042)"
2769 Lombard St San Francisco,37.7983542,-122.4470836,"(37.7983542, -122.4470836)"
1125 Ocean Ave 102 San Francisco,37.7232123,-122.4546234,"(37.7232123, -122.4546234)"
670 B Commercial St San Francisco,37.7942078,-122.4042332,"(37.7942078, -122.4042332)"
2598 Folsom St San Francisco,37.7559653,-122.4141876,"(37.7559653, -122.4141876)"
2277 Shafter Ave San Francisco,37.7380019,-122.4035127,"(37.7380019, -122.4035127)"
77 Battery St Suite 100 San Francisco,37.7919453,-122.4000024,"(37.7919452999999, -122.4000024)"
1117 Stockton St San Francisco,37.7960698,-122.408602,"(37.7960698, -122.408602)"
210 Columbus Ave San Francisco,37.7973722,-122.4056274,"(37.7973722, -122.4056274)"
4794 Mission St San Francisco,37.7213927,-122.4375256,"(37.7213927, -122.4375256)"
2406 19th Ave San Francisco,37.7428566,-122.4754027,"(37.7428566, -122.4754027)"
1408 Clement St San Francisco,37.7827185,-122.4743979,"(37.7827185, -122.4743979)"
"5900 3rd St, C2001 San Francisco",37.7247698,-122.3951423,"(37.7247698, -122.3951423)"
2404 California St San Francisco,37.7890469,-122.4342663,"(37.7890469, -122.4342663)"
3104 24th St San Francisco,37.7526144,-122.4143679,"(37.7526144, -122.4143679)"
1018 Taraval St San Francisco,37.7431851,-122.4772686,"(37.7431851, -122.4772686)"
1466 Haight St San Francisco,37.7702964,-122.4464997,"(37.7702964, -122.4464997)"
2154 Irving St San Francisco,37.7635197,-122.4812608,"(37.7635197, -122.4812608)"
1785 Fulton St San Francisco,37.7757039,-122.4461062,"(37.7757039, -122.4461062)"
1152 Valencia St San Francisco,37.7544792,-122.4211874,"(37.7544792, -122.4211874)"
2175 Market St San Francisco,37.7663573,-122.4300444,"(37.7663573, -122.4300444)"
1060 Hyde St San Francisco,37.7908671,-122.4171425,"(37.7908671, -122.4171425)"
"2565 03rd St, #336 San Francisco",37.7570539,-122.3878253,"(37.7570539, -122.3878253)"
2253 Irving St San Francisco,37.7630744,-122.4822465,"(37.7630744, -122.4822465)"
4517 03rd St San Francisco,37.7367438,-122.3896784,"(37.7367438, -122.3896784)"
3472 Mission St San Francisco,37.7412192,-122.4230032,"(37.7412192, -122.4230032)"
401 13th St San Francisco,37.8279878,-122.3737799,"(37.8279878, -122.3737799)"
901 VALENCIA St San Francisco,37.7583736,-122.4210318,"(37.7583736, -122.4210318)"
2794 California St San Francisco,37.7882761,-122.4403146,"(37.7882761, -122.4403146)"
720 Market St San Francisco,37.7876095,-122.4040736,"(37.7876094999999, -122.4040736)"
1019 Market St San Francisco,37.7815795,-122.4104437,"(37.7815795, -122.4104437)"
2049 Fillmore St San Francisco,37.7885989,-122.434043,"(37.7885989, -122.434043)"
153 Bacon St San Francisco,37.727291,-122.4042999,"(37.727291, -122.4042999)"
1028 Market St San Francisco,37.781883,-122.411323,"(37.781883, -122.411323)"
782 ARGUELLO Blvd San Francisco,37.7756506,-122.458129,"(37.7756506, -122.458129)"
3251 20th Ave P182 San Francisco,37.7278702,-122.4770819,"(37.7278702, -122.4770819)"
28 Leland Ave San Francisco,37.7115956,-122.4042725,"(37.7115956, -122.4042725)"
1409 Sutter St San Francisco,37.7870531,-122.4238335,"(37.7870531, -122.4238335)"
1125 Ocean Ave San Francisco,37.7232123,-122.4546234,"(37.7232123, -122.4546234)"
836 Irving St San Francisco,37.7642291,-122.4671618,"(37.7642291, -122.4671618)"
0498 SANCHEZ St San Francisco,37.7612726,-122.4307404,"(37.7612726, -122.4307404)"
1549 Polk St San Francisco,37.7912457,-122.4210143,"(37.7912457, -122.4210143)"
538 Clement St San Francisco,37.7831411,-122.4650864,"(37.7831411, -122.4650864)"
1919 Ocean Ave San Francisco,37.7252371,-122.4628547,"(37.7252371, -122.4628547)"
2701 San Bruno Ave San Francisco,37.7275977,-122.4033761,"(37.7275977, -122.4033761)"
1608 Polk St San Francisco,37.7917464,-122.4207943,"(37.7917464, -122.4207943)"
1033 Taraval St San Francisco,37.7427959,-122.4774076,"(37.7427959, -122.4774076)"
79 Jefferson St San Francisco,37.8083426,-122.4135703,"(37.8083426, -122.4135703)"
1 Clement St San Francisco,37.7831114,-122.4592024,"(37.7831114, -122.4592024)"
507 Columbus Ave San Francisco,37.7996108,-122.4096146,"(37.7996108, -122.4096146)"
609 Ellis St San Francisco,37.7842477,-122.4163029,"(37.7842477, -122.4163029)"
3198 16th St San Francisco,37.7650149,-122.4239421,"(37.7650149, -122.4239421)"
1386 9th Ave San Francisco,37.7624733,-122.4659524,"(37.7624733, -122.4659524)"
700 Monterey Blvd San Francisco,37.7318197,-122.4513047,"(37.7318197, -122.4513047)"
560 Balboa St San Francisco,37.7773782,-122.4648362,"(37.7773782, -122.4648362)"
4023 18th St San Francisco,37.7608201,-122.4333268,"(37.7608201, -122.4333268)"
5251 03rd St San Francisco,37.7297759,-122.3921462,"(37.7297759, -122.3921462)"
301 West Portal Ave San Francisco,37.7377663,-122.4689871,"(37.7377663, -122.4689871)"
314 Church St San Francisco,37.7658101,-122.4290315,"(37.7658101, -122.4290315)"
3193 Mission St San Francisco,37.7457009,-122.4195079,"(37.7457009, -122.4195079)"
5919 03rd St San Francisco,37.7243446,-122.3944248,"(37.7243445999999, -122.3944248)"
998 Market St San Francisco,37.782702,-122.410295,"(37.782702, -122.410295)"
737 Portola Dr San Francisco,37.7439187,-122.4535317,"(37.7439187, -122.4535317)"
1233 Van Ness Ave San Francisco,37.787153,-122.42209,"(37.787153, -122.42209)"
2541 San Bruno Ave San Francisco,37.7297266,-122.4042655,"(37.7297266, -122.4042655)"
2948 Folsom St San Francisco,37.7501803,-122.4140972,"(37.7501803, -122.4140972)"
400 Grove St San Francisco,37.7778751,-122.4234792,"(37.7778751, -122.4234792)"
3809 Geary Blvd San Francisco,37.7809257,-122.4602694,"(37.7809257, -122.4602694)"
2227 Irving St San Francisco,37.7631859,-122.4819661,"(37.7631859, -122.4819661)"
533 Jones St San Francisco,37.7863046,-122.4133627,"(37.7863046, -122.4133627)"
1823 Clement St San Francisco,37.7821075,-122.4788888,"(37.7821075, -122.4788888)"
2436 Polk St San Francisco,37.7993388,-122.4222725,"(37.7993388, -122.4222725)"
855 Terry Francois Blvd San Francisco,37.7640841,-122.38719,"(37.7640841, -122.38719)"
3336 Sacramento Ave San Francisco,37.7882865,-122.4476947,"(37.7882865, -122.4476947)"
2026 Mission St San Francisco,37.7645234,-122.4199684,"(37.7645234, -122.4199684)"
721 Larkin St San Francisco,37.7845608,-122.4180296,"(37.7845608, -122.4180296)"
650 California St San Francisco,37.7929116,-122.4052114,"(37.7929116, -122.4052114)"
986 Market St San Francisco,37.7826339,-122.4102865,"(37.7826339, -122.4102865)"
55 Cambon Dr San Francisco,37.7178723,-122.4740104,"(37.7178723, -122.4740104)"
120 Pine St San Francisco,37.7924679,-122.3991271,"(37.7924679, -122.3991271)"
133 Waverly Pl San Francisco,37.7946182,-122.4070843,"(37.7946182, -122.4070843)"
1200 Market St San Francisco,37.778643,-122.415278,"(37.778643, -122.415278)"
3348 Steiner St San Francisco,37.800381,-122.437548,"(37.800381, -122.437548)"
713 Clay St San Francisco,37.794238,-122.4051104,"(37.794238, -122.4051104)"
205 Franklin St San Francisco,37.7764195,-122.4215996,"(37.7764195, -122.4215996)"
3116 Noriega St #38th San Francisco,37.7535476,-122.4971348,"(37.7535476, -122.4971348)"
2893 Mission St San Francisco,37.7508114,-122.4181518,"(37.7508114, -122.4181518)"
3821 Noriega St San Francisco,37.7527342,-122.504854,"(37.7527342, -122.504854)"
428 11th St San Francisco,37.7697799,-122.4120353,"(37.7697799, -122.4120353)"
Pier 41 San Francisco,37.809167,-122.411389,"(37.809167, -122.411389)"
3528 Balboa St San Francisco,37.7759392,-122.4968226,"(37.7759392, -122.4968226)"
5238 Diamond Heights Blvd San Francisco,37.7444326,-122.4393894,"(37.7444326, -122.4393894)"
2800 Leavenworth St #A7 San Francisco,37.8075203,-122.4189323,"(37.8075203, -122.4189323)"
4715 Geary Blvd San Francisco,37.7804785,-122.470034,"(37.7804785, -122.470034)"
524 Sutter St San Francisco,37.7893449,-122.4091441,"(37.7893449, -122.4091441)"
1355 Market St 5th floor San Francisco,37.7767687,-122.4166164,"(37.7767687, -122.4166164)"
2550 Van Ness Ave San Francisco,37.799278,-122.4236197,"(37.799278, -122.4236197)"
700 South Van Ness Ave San Francisco,37.7618171,-122.4174394,"(37.7618171, -122.4174394)"
1550 California St San Francisco,37.7908973,-122.4200322,"(37.7908973, -122.4200322)"
900 Sutter St San Francisco,37.7885132,-122.4154342,"(37.7885132, -122.4154342)"
50 BELCHER St San Francisco,37.768574,-122.4303794,"(37.768574, -122.4303794)"
87 06th St San Francisco,37.7813102,-122.4088497,"(37.7813102, -122.4088497)"
825 Brotherhood Way San Francisco,37.7138616,-122.4783314,"(37.7138616, -122.4783314)"
Pier 39  Space D-13 San Francisco,37.808673,-122.409821,"(37.808673, -122.409821)"
875 Stevenson St 9th Floor San Francisco,37.776275,-122.4162807,"(37.776275, -122.4162807)"
200 Pine St #180 San Francisco,37.7923711,-122.4001537,"(37.7923711, -122.4001537)"
4929 Mission St San Francisco,37.719425,-122.4384936,"(37.719425, -122.4384936)"
3619 Balboa St San Francisco,37.7755254,-122.4977108,"(37.7755254, -122.4977108)"
900 22nd St San Francisco,37.7579394,-122.3904163,"(37.7579394, -122.3904163)"
3251 20th Ave 5517 San Francisco,37.7278702,-122.4770819,"(37.7278702, -122.4770819)"
333 O'Farrell St San Francisco,37.7856846,-122.4104325,"(37.7856846, -122.4104325)"
1000 Howard St San Francisco,37.779721,-122.4076366,"(37.779721, -122.4076366)"
1270 Valencia St San Francisco,37.752521,-122.420917,"(37.752521, -122.420917)"
1501 Ocean Ave San Francisco,37.7241721,-122.4583585,"(37.7241721, -122.4583585)"
833 Cortland Ave San Francisco,37.7391011,-122.4141424,"(37.7391011, -122.4141424)"
401 Geary St San Francisco,37.786896,-122.410011,"(37.786896, -122.410011)"
600 Monterey Blvd San Francisco,37.7318248,-122.4491977,"(37.7318248, -122.4491977)"
888 Stockton St San Francisco,37.7938774,-122.4076729,"(37.7938774, -122.4076729)"
1181 Ocean Ave San Francisco,37.7234975,-122.4548939,"(37.7234975, -122.4548939)"
2301 Bryant St San Francisco,37.757504,-122.4093679,"(37.757504, -122.4093679)"
2848 23rd St San Francisco,37.7545795,-122.4091548,"(37.7545795, -122.4091548)"
1760 Cesar Chavez St Unit L San Francisco,37.750466,-122.39495,"(37.750466, -122.39495)"
817 TERRY FRANCOIS Blvd San Francisco,37.7654734,-122.3865341,"(37.7654734, -122.3865341)"
2257 San Jose Ave San Francisco,37.7209008,-122.4462372,"(37.7209008, -122.4462372)"
1640 Haight St San Francisco,37.7699313,-122.4493157,"(37.7699313, -122.4493157)"
2470 San Bruno Ave San Francisco,37.7306713,-122.4052746,"(37.7306713, -122.4052746)"
343 Clement St San Francisco,37.7828325,-122.4631012,"(37.7828325, -122.4631012)"
1350 07th Ave San Francisco,37.7632393,-122.4637979,"(37.7632393, -122.4637979)"
609 Hayes St San Francisco,37.7762706,-122.4265293,"(37.7762706, -122.4265293)"
581 Hayes St San Francisco,37.7763563,-122.4258777,"(37.7763563, -122.4258777)"
24 Wilie Mays Plaza San Francisco,37.7785351,-122.3894833,"(37.7785351, -122.3894833)"
561 Columbus Ave San Francisco,37.7999816,-122.410018,"(37.7999816, -122.410018)"
5423 Geary Blvd San Francisco,37.7801157,-122.4777,"(37.7801157, -122.4777)"
98 Judah St San Francisco,37.7624653,-122.4627576,"(37.7624653, -122.4627576)"
674 Broadway St San Francisco,37.797982,-122.408209,"(37.797982, -122.408209)"
1851 Noriega St San Francisco,37.7536672,-122.483838,"(37.7536672, -122.483838)"
790 Valencia St San Francisco,37.7603043,-122.4218258,"(37.7603043, -122.4218258)"
845 Market St San Francisco,37.78451,-122.4067089,"(37.78451, -122.4067089)"
1314 Ocean Ave San Francisco,37.7242395,-122.4567663,"(37.7242395, -122.4567663)"
4614 03rd St San Francisco,37.7362301,-122.3905503,"(37.7362301, -122.3905503)"
299 Ellis St San Francisco,37.7849455,-122.4109421,"(37.7849455, -122.4109421)"
800 Valencia St San Francisco,37.7599654,-122.4218144,"(37.7599654, -122.4218144)"
549 Castro St San Francisco,37.7601095,-122.4346984,"(37.7601095, -122.4346984)"
24 Willie Mays Pl San Francisco,37.7785351,-122.3894833,"(37.7785351, -122.3894833)"
3251 20th Ave #156 San Francisco,37.7278702,-122.4770819,"(37.7278702, -122.4770819)"
12 Tillman St San Francisco,37.7892867,-122.4054284,"(37.7892867, -122.4054284)"
71 Stevenson St #100 San Francisco,37.7893453,-122.3996712,"(37.7893453, -122.3996712)"
732 Jackson St San Francisco,37.7960557,-122.4072982,"(37.7960557, -122.4072982)"
2191 Irving St San Francisco,37.7631618,-122.481186,"(37.7631618, -122.481186)"
312 West Portal Ave San Francisco,37.7378947,-122.469618,"(37.7378947, -122.469618)"
920 Geary St San Francisco,37.786293,-122.4185089,"(37.786293, -122.4185089)"
2325 Taraval St San Francisco,37.7421809,-122.4911737,"(37.7421809, -122.4911737)"
411 Valencia St San Francisco,37.7663137,-122.4218104,"(37.7663137, -122.4218104)"
1434 Lombard St San Francisco,37.801407,-122.4252717,"(37.801407, -122.4252717)"
1551 Dolores St San Francisco,37.7445575,-122.424155,"(37.7445575, -122.424155)"
1000 Guerrero St San Francisco,37.7549853,-122.4235139,"(37.7549853, -122.4235139)"
2805 Mission St San Francisco,37.7520966,-122.4182507,"(37.7520966, -122.4182507)"
599 O'Farrell St San Francisco,37.7854505,-122.4144814,"(37.7854505, -122.4144814)"
800 Masonic Ave San Francisco,37.7738615,-122.4458442,"(37.7738615, -122.4458442)"
1125 Stockton St San Francisco,37.7961667,-122.4086056,"(37.7961667, -122.4086056)"
180 Spear St San Francisco,37.791282,-122.39306,"(37.791282, -122.39306)"
4001 Judah St San Francisco,37.7602623,-122.5050273,"(37.7602623, -122.5050273)"
4482 Mission St San Francisco,37.72616,-122.4340353,"(37.72616, -122.4340353)"
1198 Treat Ave San Francisco,37.7511578,-122.4130782,"(37.7511578, -122.4130782)"
2598 Harrison St San Francisco,37.7560218,-122.412464,"(37.7560218, -122.412464)"
900 North Point St San Francisco,37.8053923,-122.4235114,"(37.8053923, -122.4235114)"
810 Van Ness Ave San Francisco,37.7831056,-122.4206372,"(37.7831056, -122.4206372)"
1142 Valencia St San Francisco,37.7546315,-122.4211448,"(37.7546315, -122.4211448)"
44 Ellis St San Francisco,37.7857859,-122.4070063,"(37.7857859, -122.4070063)"
5336 Geary Blvd San Francisco,37.7806872,-122.4768724,"(37.7806872, -122.4768724)"
2500 Bryant St San Francisco,37.754284,-122.4095367,"(37.754284, -122.4095367)"
320 03rd St San Francisco,37.7834893,-122.398841,"(37.7834893, -122.398841)"
121 Spear St San Francisco,37.7918989,-122.3928335,"(37.7918989, -122.3928335)"
3861 24th St San Francisco,37.7514056,-122.4289997,"(37.7514056, -122.4289997)"
4419 California St San Francisco,37.7845947,-122.4648947,"(37.7845947, -122.4648947)"
474 03rd St San Francisco,37.7814356,-122.3963625,"(37.7814356, -122.3963625)"
376 Castro St San Francisco,37.7629629,-122.4355309,"(37.7629629, -122.4355309)"
570 Green St San Francisco,37.7997828,-122.408578,"(37.7997828, -122.408578)"
Off the Grid San Francisco,37.8067864,-122.4314179,"(37.8067864, -122.4314179)"
1708 Irving St San Francisco,37.7637957,-122.4763929,"(37.7637957, -122.4763929)"
1355 Market St San Francisco,37.7767687,-122.4166164,"(37.7767687, -122.4166164)"
2800 Leavenworth St #A11 San Francisco,37.8075203,-122.4189323,"(37.8075203, -122.4189323)"
55 Music Concourse Dr San Francisco,37.7698293,-122.466105,"(37.7698293, -122.466105)"
450 Sutter St Suite 7 San Francisco,37.7894701,-122.407824,"(37.7894701, -122.407824)"
601 Mission Bay Blvd North San Francisco,37.7707981,-122.3916018,"(37.7707981, -122.3916018)"
1351 Church St San Francisco,37.7491936,-122.427056,"(37.7491936, -122.427056)"
1737 Buchanan St San Francisco,37.7861976,-122.4301669,"(37.7861976, -122.4301669)"
1426 Polk St San Francisco,37.79012,-122.4202352,"(37.79012, -122.4202352)"
170 O'Farrell St San Francisco,37.7867986,-122.4073963,"(37.7867986, -122.4073963)"
1836 Divisadero St San Francisco,37.7867208,-122.4399219,"(37.7867208, -122.4399219)"
4058 18th St San Francisco,37.7611444,-122.4340943,"(37.7611444, -122.4340943)"
2205 Lombard St San Francisco,37.7994198,-122.4379861,"(37.7994198, -122.4379861)"
1737 Balboa St San Francisco,37.7764694,-122.4777903,"(37.7764694, -122.4777903)"
3420 Geary Blvd San Francisco,37.781584,-122.4560733,"(37.781584, -122.4560733)"
405 Mason St San Francisco,37.7873382,-122.4101851,"(37.7873382, -122.4101851)"
1035 Fillmore St #3 San Francisco,37.7789499,-122.4320979,"(37.7789499, -122.4320979)"
2937 Mission St San Francisco,37.750048,-122.4179594,"(37.750048, -122.4179594)"
1398 Leavenworth St San Francisco,37.7939152,-122.4163141,"(37.7939152, -122.4163141)"
1101 Grant Ave San Francisco,37.797002,-122.407049,"(37.797002, -122.407049)"
2551 Noriega St San Francisco,37.7533887,-122.4912402,"(37.7533887, -122.4912402)"
752 Van Ness Ave San Francisco,37.7824358,-122.4203288,"(37.7824358, -122.4203288)"
1650 Holloway Ave San Francisco,37.7223946,-122.4786143,"(37.7223946, -122.4786143)"
4627 Geary Blvd San Francisco,37.7805256,-122.4690967,"(37.7805256, -122.4690967)"
845 Market St #495 San Francisco,37.78451,-122.4067089,"(37.78451, -122.4067089)"
424 Clay St San Francisco,37.7951109,-122.4007168,"(37.7951109, -122.4007168)"
3088 Balboa St San Francisco,37.7761503,-122.4918133,"(37.7761503, -122.4918133)"
2001 Chestnut St San Francisco,37.800635,-122.4364466,"(37.800635, -122.4364466)"
596 O'Farrell St San Francisco,37.7858372,-122.4144976,"(37.7858372, -122.4144976)"
24 WILLIE MAYS PL San Francisco,37.7785351,-122.3894833,"(37.7785351, -122.3894833)"
2966 Mission St San Francisco,37.7495088,-122.4184165,"(37.7495088, -122.4184165)"
3391 Mission St San Francisco,37.7422976,-122.421768,"(37.7422976, -122.421768)"
1376 09th Ave San Francisco,37.7626795,-122.4659891,"(37.7626795, -122.4659891)"
100 Van Ness Ave B San Francisco,37.776731,-122.4192514,"(37.776731, -122.4192514)"
1753 Taraval St San Francisco,37.742515,-122.4851305,"(37.742515, -122.4851305)"
613 Faxon Ave San Francisco,37.7250625,-122.4601189,"(37.7250625, -122.4601189)"
3755 Noriega St San Francisco,37.7528057,-122.5041629,"(37.7528057, -122.5041629)"
3836 Geary Blvd San Francisco,37.7814797,-122.4606872,"(37.7814797, -122.4606872)"
2801 Leavenworth St #1011 San Francisco,37.807092,-122.4193985,"(37.807092, -122.4193985)"
2350 Noriega St San Francisco,37.7541947,-122.4888054,"(37.7541947, -122.4888054)"
1335 Powell St San Francisco,37.796961,-122.410461,"(37.796961, -122.410461)"
5338 Geary Blvd San Francisco,37.7807307,-122.4768569,"(37.7807307, -122.4768569)"
1689 Church St San Francisco,37.743923,-122.4264786,"(37.743923, -122.4264786)"
3801 17th St San Francisco,37.7626468,-122.4309077,"(37.7626468, -122.4309077)"
65 Leland Ave San Francisco,37.7115527,-122.4052651,"(37.7115527, -122.4052651)"
300 Jefferson St San Francisco,37.8080975,-122.4178897,"(37.8080975, -122.4178897)"
301 King St San Francisco,37.7758195,-122.3938922,"(37.7758195, -122.3938922)"
655 Union St San Francisco,37.8002323,-122.4103817,"(37.8002323, -122.4103817)"
1737 Post St 368 San Francisco,37.7852966,-122.4306727,"(37.7852966, -122.4306727)"
1599 Revere St San Francisco,37.7314699,-122.3901565,"(37.7314699, -122.3901565)"
39 Taylor St San Francisco,37.7827661,-122.4110475,"(37.7827661, -122.4110475)"
2101 Geneva Ave San Francisco,37.7087329,-122.420735,"(37.7087329, -122.420735)"
045 CASTRO St San Francisco,37.7686681,-122.4354274,"(37.7686681, -122.4354274)"
499 Castro St San Francisco,37.7611402,-122.4345649,"(37.7611402, -122.4345649)"
3188 Mission St San Francisco,37.746071,-122.419829,"(37.746071, -122.419829)"
2499 San Bruno Ave San Francisco,37.7304989,-122.404549,"(37.7304989, -122.404549)"
1516 Folsom St San Francisco,37.7718368,-122.4145672,"(37.7718368, -122.4145672)"
1324 Fitzgerald Ave San Francisco,37.7225942,-122.3939328,"(37.7225942, -122.3939328)"
1900 Market St San Francisco,37.7707222,-122.4253218,"(37.7707222, -122.4253218)"
272 Claremont Blvd San Francisco,37.741088,-122.4650793,"(37.741088, -122.4650793)"
555 Golden Gate Ave San Francisco,37.7808859,-122.4195896,"(37.7808859, -122.4195896)"
920 Valencia St San Francisco,37.7580898,-122.4215499,"(37.7580898, -122.4215499)"
690 Folsom St San Francisco,37.7842107,-122.3989867,"(37.7842107, -122.3989867)"
290 Townsend St San Francisco,37.777788,-122.3947213,"(37.777788, -122.3947213)"
1139 Taraval St San Francisco,37.7427618,-122.4785838,"(37.7427618, -122.4785838)"
611 Larkin St San Francisco,37.7835113,-122.4178625,"(37.7835113, -122.4178625)"
615 Jackson St San Francisco,37.795996,-122.405546,"(37.795996, -122.405546)"
2101 Van Ness Ave San Francisco,37.7950322,-122.4236125,"(37.7950322, -122.4236125)"
1650 Holloway Ave West Plaza Alcove C San Francisco,37.7225486,-122.4788914,"(37.7225486, -122.4788914)"
2828 Jones St San Francisco,37.8074784,-122.4173566,"(37.8074784, -122.4173566)"
3951 Alemany Blvd San Francisco,37.7100729,-122.4679579,"(37.7100729, -122.4679579)"
1117 Fillmore St San Francisco,37.7799703,-122.432175,"(37.7799703, -122.432175)"
3409 Geary Blvd San Francisco,37.7811363,-122.4555484,"(37.7811363, -122.4555484)"
"Pier 39  P-214-A2,3,4 San Francisco",37.808673,-122.409821,"(37.808673, -122.409821)"
850 Bush St San Francisco,37.7901223,-122.4113585,"(37.7901223, -122.4113585)"
3985 17th St San Francisco,37.7623487,-122.4348035,"(37.7623487, -122.4348035)"
425 A Hayes St San Francisco,37.776674,-122.4233994,"(37.776674, -122.4233994)"
2311 Clement St San Francisco,37.7818662,-122.4840794,"(37.7818662, -122.4840794)"
2315 Clement St San Francisco,37.7818502,-122.4841814,"(37.7818502, -122.4841814)"
605 kearny St San Francisco,37.7937208,-122.4048248,"(37.7937208, -122.4048248)"
2246 Lombard St San Francisco,37.7998124,-122.4387604,"(37.7998124, -122.4387604)"
2298 Fillmore St San Francisco,37.7906324,-122.4339435,"(37.7906324, -122.4339435)"
2222 BROADWAY St San Francisco,37.794941,-122.4340029,"(37.794941, -122.4340029)"
417 Castro St San Francisco,37.7622828,-122.434936,"(37.7622828, -122.434936)"
1108 Stockton St San Francisco,37.7960736,-122.4080406,"(37.7960736, -122.4080406)"
4523 Mission St San Francisco,37.7257489,-122.4336818,"(37.7257489, -122.4336818)"
2271 Union St San Francisco,37.7967505,-122.4366291,"(37.7967505, -122.4366291)"
133 Clement  St. San Francisco,37.7829909,-122.4606844,"(37.7829909, -122.4606844)"
642 Clement St San Francisco,37.7830947,-122.4662397,"(37.7830947, -122.4662397)"
44 Tehama St San Francisco,37.7876012,-122.3966428,"(37.7876012, -122.3966428)"
620 Broadway St San Francisco,37.7979278,-122.4074969,"(37.7979278, -122.4074969)"
1650 Balboa St San Francisco,37.7767972,-122.4767905,"(37.7767972, -122.4767905)"
3435 Mission St San Francisco,37.7417478,-122.4220498,"(37.7417478, -122.4220498)"
Ferry Plaza Pier San Francisco,37.795274,-122.393421,"(37.795274, -122.393421)"
3915 24th St San Francisco,37.7513918,-122.4300348,"(37.7513918, -122.4300348)"
1748 Church St San Francisco,37.7430144,-122.4269006,"(37.7430144, -122.4269006)"
303 02nd St Suite G San Francisco,37.7852332,-122.3956934,"(37.7852332, -122.3956934)"
211 Valencia St San Francisco,37.769625,-122.4220989,"(37.769625, -122.4220989)"
801 Font Blvd San Francisco,37.7223013,-122.4829959,"(37.7223013, -122.4829959)"
3139 Mission St San Francisco,37.7470161,-122.418717,"(37.7470161, -122.418717)"
3499 16th St San Francisco,37.7641759,-122.430668,"(37.7641759, -122.430668)"
4108 24th St San Francisco,37.7514257,-122.4343504,"(37.7514257, -122.4343504)"
3565 Geary Blvd San Francisco,37.7810299,-122.4573273,"(37.7810299, -122.4573273)"
"865 Market St, #146 San Francisco",37.784118,-122.4064352,"(37.784118, -122.4064352)"
3801 03rd St San Francisco,37.7416128,-122.3874168,"(37.7416128, -122.3874168)"
2221 Clement St San Francisco,37.7819382,-122.4831857,"(37.7819382, -122.4831857)"
2943 Mission St San Francisco,37.7499797,-122.4179073,"(37.7499797, -122.4179073)"
2499 Mission St San Francisco,37.7571815,-122.4187488,"(37.7571815, -122.4187488)"
1355 Market St #120 San Francisco,37.7767687,-122.4166164,"(37.7767687, -122.4166164)"
451 Castro St San Francisco,37.7616955,-122.4348244,"(37.7616954999999, -122.4348244)"
149 Fell St San Francisco,37.7759969,-122.420366,"(37.7759969, -122.420366)"
915 Kearny St San Francisco,37.7964178,-122.4053695,"(37.7964178, -122.4053695)"
4994 Mission St San Francisco,37.7186864,-122.439699,"(37.7186864, -122.439699)"
508 Valencia St San Francisco,37.7646691,-122.422251,"(37.7646691, -122.422251)"
1494 California St San Francisco,37.7910169,-122.4189757,"(37.7910169, -122.4189757)"
1935 Taraval St San Francisco,37.7423353,-122.4870367,"(37.7423353, -122.4870367)"
751 Diamond St San Francisco,37.7513404,-122.4361158,"(37.7513404, -122.4361158)"
358 Beach St San Francisco,37.8075992,-122.4150063,"(37.8075992, -122.4150063)"
716 Kearny St San Francisco,37.7947971,-122.404608,"(37.7947971, -122.404608)"
2360 Van Ness Ave San Francisco,37.7975248,-122.4234968,"(37.7975248, -122.4234968)"
800 Font Blvd San Francisco,37.7235358,-122.4836338,"(37.7235358, -122.4836338)"
"Mission St, betw 10th & 11th St San Francisco",37.7756242,-122.4158817,"(37.7756242, -122.4158817)"
1582 Folsom St San Francisco,37.771141,-122.415112,"(37.771141, -122.415112)"
801 Market St San Francisco,37.7853205,-122.4059724,"(37.7853205, -122.4059724)"
333 Brannan St San Francisco,37.780811,-122.3924944,"(37.780811, -122.3924944)"
91 Drumm St San Francisco,37.7944362,-122.3968503,"(37.7944362, -122.3968503)"
3109 16th St San Francisco,37.7647489,-122.4221986,"(37.7647489, -122.4221986)"
Pier 39  Space 206-8 San Francisco,37.8109832,-122.4111794,"(37.8109832, -122.4111794)"
1795 Geary Blvd San Francisco,37.7841532,-122.4324573,"(37.7841532, -122.4324573)"
1310 Noriega St San Francisco,37.7543695,-122.4777883,"(37.7543695, -122.4777883)"
230 4th St Suite 220 San Francisco,37.7826296,-122.4022544,"(37.7826296, -122.4022544)"
875 Stevenson St 10th Floor San Francisco,37.776275,-122.4162807,"(37.776275, -122.4162807)"
1130 Ocean Ave San Francisco,37.7236209,-122.453781,"(37.7236209, -122.453781)"
806 S Van Ness Ave San Francisco,37.7601718,-122.4173293,"(37.7601717999999, -122.4173293)"
3174 16th St San Francisco,37.76505,-122.4235709,"(37.76505, -122.4235709)"
2462 San Bruno Ave San Francisco,37.7307991,-122.4051747,"(37.7307991, -122.4051747)"
2031 Polk St San Francisco,37.7954923,-122.4219909,"(37.7954923, -122.4219909)"
303 2nd St Plaza San Francisco,37.7852054,-122.3957991,"(37.7852054, -122.3957991)"
708 Bush St San Francisco,37.7902809,-122.4091133,"(37.7902809, -122.4091133)"
47 FRANKLIN St San Francisco,37.7750543,-122.4210701,"(37.7750543, -122.4210701)"
280 Golden Gate Ave San Francisco,37.7818502,-122.4152866,"(37.7818502, -122.4152866)"
4724 Geary Blvd San Francisco,37.7810634,-122.4702069,"(37.7810634, -122.4702069)"
303 02nd St San Francisco,37.7852332,-122.3956934,"(37.7852332, -122.3956934)"
231 Franklin St San Francisco,37.7767014,-122.4214817,"(37.7767014, -122.4214817)"
3248 18th St San Francisco,37.7622095,-122.4160277,"(37.7622095, -122.4160277)"
100 Bush St #110 San Francisco,37.7914786,-122.3999468,"(37.7914786, -122.3999468)"
846 Geary St San Francisco,37.7863953,-122.4172554,"(37.7863953, -122.4172554)"
1581 Webster St 275 San Francisco,37.7850458,-122.4320932,"(37.7850458, -122.4320932)"
549 Irving St San Francisco,37.7639535,-122.4639006,"(37.7639535, -122.4639006)"
3613 Sacramento St San Francisco,37.7873293,-122.4521504,"(37.7873293, -122.4521504)"
332 Clement St San Francisco,37.783245,-122.4629421,"(37.783245, -122.4629421)"
2435 Clement St San Francisco,37.7817822,-122.4855277,"(37.7817821999999, -122.4855277)"
3456 Mission St San Francisco,37.7414684,-122.4228417,"(37.7414684, -122.4228417)"
1506 Fillmore St San Francisco,37.7835439,-122.4324355,"(37.7835439, -122.4324355)"
4773 Mission St San Francisco,37.7218437,-122.4366291,"(37.7218437, -122.4366291)"
1404 Taraval St San Francisco,37.7430672,-122.4813212,"(37.7430672, -122.4813212)"
277 Golden Gate Ave #114 San Francisco,37.7814449,-122.4149986,"(37.7814449, -122.4149986)"
2150 Irving St San Francisco,37.7635243,-122.4811727,"(37.7635243, -122.4811727)"
177 Eddy St San Francisco,37.7839943,-122.4104373,"(37.7839943, -122.4104373)"
3750 Geary Blvd San Francisco,37.7814739,-122.4598511,"(37.7814739, -122.4598511)"
333 Post St San Francisco,37.7879384,-122.4075056,"(37.7879384, -122.4075056)"
850 La Playa St San Francisco,37.7724105,-122.5093774,"(37.7724105, -122.5093774)"
5512 Geary Blvd San Francisco,37.7806696,-122.4786895,"(37.7806696, -122.4786895)"
1701 Folsom St San Francisco,37.7693566,-122.41548,"(37.7693566, -122.41548)"
Treasure Island San Francisco,37.8235515,-122.370648,"(37.8235515, -122.370648)"
669 Geary St San Francisco,37.7864183,-122.4142652,"(37.7864183, -122.4142652)"
820 Ulloa St San Francisco,37.7408262,-122.4653891,"(37.7408262, -122.4653891)"
1398 Grant Ave San Francisco,37.799601,-122.4072141,"(37.799601, -122.4072141)"
73 Cambon St San Francisco,37.7176984,-122.4738411,"(37.7176984, -122.4738411)"
2144 Chestnut St San Francisco,37.8006178,-122.4387125,"(37.8006178, -122.4387125)"
716 Columbus Ave San Francisco,37.8016469,-122.4117828,"(37.8016469, -122.4117828)"
501 Fell St San Francisco,37.775325,-122.4262355,"(37.775325, -122.4262355)"
2801 Folsom St San Francisco,37.7523758,-122.4138638,"(37.7523758, -122.4138638)"
3505 B 17th St San Francisco,37.7630163,-122.4243619,"(37.7630163, -122.4243619)"
1598 Yosemite Ave San Francisco,37.7268861,-122.3914937,"(37.7268861, -122.3914937)"
411 Ellis St San Francisco,37.7846358,-122.4131046,"(37.7846358, -122.4131046)"
1040 Revere Ave San Francisco,37.7258576,-122.3796798,"(37.7258576, -122.3796798)"
1230 Polk St San Francisco,37.7882491,-122.420227,"(37.7882491, -122.420227)"
234 Townsend St San Francisco,37.7783643,-122.3938842,"(37.7783643, -122.3938842)"
480 Sutter St Mezzanine San Francisco,37.7824843,-122.4080736,"(37.7824843, -122.4080736)"
337 Jones St San Francisco,37.7844218,-122.412994,"(37.7844218, -122.412994)"
3201 20th Ave San Francisco,37.7297826,-122.4764704,"(37.7297826, -122.4764704)"
701 Cole St San Francisco,37.7684461,-122.4507497,"(37.7684461, -122.4507497)"
1096 South Van Ness Ave San Francisco,37.7557314,-122.4169065,"(37.7557313999999, -122.4169065)"
1325 Ocean Ave San Francisco,37.7237869,-122.4566832,"(37.7237869, -122.4566832)"
1030 Hyde St San Francisco,37.7905125,-122.4170945,"(37.7905125, -122.4170945)"
4724 Mission San Francisco,37.7226675,-122.4366879,"(37.7226675, -122.4366879)"
655 Larkin St San Francisco,37.7840059,-122.4179186,"(37.7840059, -122.4179186)"
1082 FOLSOM St San Francisco,37.7772552,-122.4076355,"(37.7772552, -122.4076355)"
201 Ellis St San Francisco,37.7851632,-122.4096814,"(37.7851632, -122.4096814)"
641 Irving St San Francisco,37.7639255,-122.4648927,"(37.7639255, -122.4648927)"
6 Monterey Blvd San Francisco,37.732519,-122.4347697,"(37.732519, -122.4347697)"
2251 Market St San Francisco,37.7648902,-122.4317849,"(37.7648902, -122.4317849)"
24  Pl San Francisco,37.7525417,-122.4135418,"(37.7525416999999, -122.4135418)"
250 Montgomery St San Francisco,37.7916899,-122.4023125,"(37.7916899, -122.4023125)"
761 Post St San Francisco,37.7872681,-122.4142493,"(37.7872681, -122.4142493)"
930 Bush St San Francisco,37.7898366,-122.4127105,"(37.7898366, -122.4127105)"
1098 Jackson St San Francisco,37.7953932,-122.4131214,"(37.7953932, -122.4131214)"
4601 Geary Blvd San Francisco,37.7805245,-122.4687717,"(37.7805245, -122.4687717)"
528 Divisadero St San Francisco,37.7745106,-122.437388,"(37.7745106, -122.437388)"
1422 Ocean Ave San Francisco,37.7244966,-122.4576945,"(37.7244965999999, -122.4576945)"
2767 Lombard St San Francisco,37.798384,-122.4469269,"(37.798384, -122.4469269)"
1356 Polk St San Francisco,37.789524,-122.4203089,"(37.789524, -122.4203089)"
2801 California St San Francisco,37.7878593,-122.4406637,"(37.7878593, -122.4406637)"
3876 Noriega St San Francisco,37.753176,-122.5050042,"(37.753176, -122.5050042)"
221 Main St San Francisco,37.7903443,-122.392177,"(37.7903443, -122.392177)"
458 Grove St San Francisco,37.7778404,-122.4242244,"(37.7778404, -122.4242244)"
1501 Noriega St San Francisco,37.7538871,-122.4798691,"(37.7538871, -122.4798691)"
257 3rd St San Francisco,37.7846701,-122.3995849,"(37.7846701, -122.3995849)"
478 Green St San Francisco,37.7998525,-122.4072593,"(37.7998525, -122.4072593)"
900 North Point St #B-201 San Francisco,37.8059535,-122.4227645,"(37.8059535, -122.4227645)"
160 14th St San Francisco,37.7686704,-122.4169584,"(37.7686704, -122.4169584)"
100 Gough St San Francisco,37.7742734,-122.4222821,"(37.7742734, -122.4222821)"
1305 Castro St San Francisco,37.7510547,-122.4337981,"(37.7510547, -122.4337981)"
4787 Mission St San Francisco,37.7217148,-122.4367566,"(37.7217148, -122.4367566)"
1000 Stockton St San Francisco,37.795222,-122.407905,"(37.795222, -122.407905)"
1746 Post St San Francisco,37.7857672,-122.4306298,"(37.7857672, -122.4306298)"
50 Drumm St San Francisco,37.7951676,-122.3963731,"(37.7951676, -122.3963731)"
44 West Portal Ave San Francisco,37.7404953,-122.4666025,"(37.7404953, -122.4666025)"
3251 20th Ave  6525 San Francisco,37.7278702,-122.4770819,"(37.7278702, -122.4770819)"
350 02nd St San Francisco,37.7845143,-122.3961078,"(37.7845143, -122.3961078)"
3000 24th St San Francisco,37.752799,-122.412202,"(37.752799, -122.412202)"
515 Bay St San Francisco,37.8052446,-122.4156028,"(37.8052446, -122.4156028)"
1316 Noriega St San Francisco,37.7543566,-122.477832,"(37.7543566, -122.477832)"
1665 Haight St San Francisco,37.7694444,-122.4499209,"(37.7694444, -122.4499209)"
4007 24th St San Francisco,37.7513068,-122.4321768,"(37.7513068, -122.4321768)"
624 Irving St San Francisco,37.7643456,-122.4647099,"(37.7643456, -122.4647099)"
3251 20th Ave San Francisco,37.7278702,-122.4770819,"(37.7278702, -122.4770819)"
2032 Union St San Francisco,37.7975481,-122.4329035,"(37.7975481, -122.4329035)"
737 03rd St San Francisco,37.7786103,-122.3921086,"(37.7786103, -122.3921086)"
2400 Lombard St San Francisco,37.7993914,-122.4412001,"(37.7993914, -122.4412001)"
1468 Hyde St San Francisco,37.7945124,-122.4178853,"(37.7945124, -122.4178853)"
845 Market St Box A San Francisco,37.784546,-122.406798,"(37.784546, -122.406798)"
8 Octavia St San Francisco,37.7725981,-122.4234299,"(37.7725981, -122.4234299)"
127 Eddy St San Francisco,37.7841852,-122.4097681,"(37.7841852, -122.4097681)"
110 Hunters Point Shipyard San Francisco,37.7206531,-122.3673427,"(37.7206531, -122.3673427)"
2437 Noriega St San Francisco,37.7535036,-122.4900165,"(37.7535035999999, -122.4900165)"
1700 Post St #B San Francisco,37.7857557,-122.4301162,"(37.7857557, -122.4301162)"
1109 Fillmore St San Francisco,37.7798247,-122.4322888,"(37.7798247, -122.4322888)"
50 03rd St San Francisco,37.7864234,-122.4031008,"(37.7864234, -122.4031008)"
645 Larkin St San Francisco,37.7839671,-122.4178402,"(37.7839671, -122.4178402)"
224 Kearny St San Francisco,37.7902111,-122.4037334,"(37.7902111, -122.4037334)"
2763 San Bruno Ave San Francisco,37.7268747,-122.4030753,"(37.7268747, -122.4030753)"
2298 Market St San Francisco,37.7646563,-122.4329356,"(37.7646563, -122.4329356)"
4042 24th St San Francisco,37.7515807,-122.4329139,"(37.7515807, -122.4329139)"
4217 Geary Blvd San Francisco,37.7807951,-122.4646612,"(37.7807951, -122.4646612)"
59 09th St San Francisco,37.7768524,-122.4151327,"(37.7768524, -122.4151327)"
535 Irving St San Francisco,37.76398,-122.4636799,"(37.76398, -122.4636799)"
2922 Diamond St San Francisco,37.7331708,-122.4344478,"(37.7331708, -122.4344478)"
1958 Polk St San Francisco,37.7947217,-122.4213591,"(37.7947217, -122.4213591)"
3065 Jackson St San Francisco,37.7908693,-122.4454352,"(37.7908693, -122.4454352)"
2555 Judah St San Francisco,37.7609486,-122.4895545,"(37.7609486, -122.4895545)"
65 Cambon Dr San Francisco,37.7177842,-122.4739235,"(37.7177842, -122.4739235)"
2500 Noriega St San Francisco,37.7538218,-122.4906178,"(37.7538218, -122.4906178)"
2200 Mason St San Francisco,37.803956,-122.413126,"(37.803956, -122.413126)"
Market St San Francisco,37.7735248,-122.4212212,"(37.7735248, -122.4212212)"
480 Sutter St Service Level San Francisco,37.7894032,-122.4083743,"(37.7894032, -122.4083743)"
262 Divisadero St San Francisco,37.7716078,-122.4368614,"(37.7716078, -122.4368614)"
559 Divisadero St San Francisco,37.7747836,-122.438001,"(37.7747836, -122.438001)"
1713 Taraval St San Francisco,37.7424841,-122.4846368,"(37.7424841, -122.4846368)"
752 Columbus Ave San Francisco,37.8017291,-122.4120014,"(37.8017291, -122.4120014)"
622 Green St San Francisco,37.7995614,-122.4096741,"(37.7995614, -122.4096741)"
256 Columbus Ave San Francisco,37.7976889,-122.406135,"(37.7976889, -122.406135)"
2333 Irving St San Francisco,37.7630772,-122.4830771,"(37.7630772, -122.4830771)"
2823 Mission St San Francisco,37.751922,-122.4182192,"(37.751922, -122.4182192)"
3998 18th St San Francisco,37.7611582,-122.4325233,"(37.7611582, -122.4325233)"
2127 Polk St San Francisco,37.7963794,-122.4222862,"(37.7963794, -122.4222862)"
1323 Columbus Ave San Francisco,37.806252,-122.419208,"(37.806252, -122.419208)"
50 Post St #63 San Francisco,37.7891638,-122.4029793,"(37.7891638, -122.4029793)"
2225 Jennings St San Francisco,37.7260856,-122.3890036,"(37.7260856, -122.3890036)"
1330 Noriega St San Francisco,37.7544162,-122.4781525,"(37.7544162, -122.4781525)"
360 Ritch St San Francisco,37.778838,-122.3940772,"(37.778838, -122.3940772)"
1924 IRVING St San Francisco,37.7637377,-122.4787546,"(37.7637377, -122.4787546)"
2218 Irving St San Francisco,37.7635729,-122.4818661,"(37.7635729, -122.4818661)"
402 Balboa St San Francisco,37.7774282,-122.4631833,"(37.7774282, -122.4631833)"
522 Jones St San Francisco,37.7860752,-122.4128669,"(37.7860752, -122.4128669)"
1155 Battery St San Francisco,37.8017317,-122.4022811,"(37.8017317, -122.4022811)"
3815 Geary Blvd San Francisco,37.7809713,-122.4603635,"(37.7809713, -122.4603635)"
2211 Mission St San Francisco,37.7615715,-122.4190799,"(37.7615715, -122.4190799)"
1299 Pacific Ave San Francisco,37.7955632,-122.4165303,"(37.7955632, -122.4165303)"
3324 24th St San Francisco,37.7523794,-122.419108,"(37.7523794, -122.419108)"
Pier 45  Shed B San Francisco,37.8093233,-122.417095,"(37.8093233, -122.417095)"
341 Kearny St San Francisco,37.7913747,-122.4043892,"(37.7913747, -122.4043892)"
5641 Geary Blvd San Francisco,37.7801116,-122.4801061,"(37.7801116, -122.4801061)"
665 Market St San Francisco,37.7880302,-122.4026327,"(37.7880302, -122.4026327)"
521 Cortland Ave San Francisco,37.7391791,-122.4160223,"(37.7391791, -122.4160223)"
501 Geary St San Francisco,37.7866197,-122.411821,"(37.7866197, -122.411821)"
425 Barneveld Ave San Francisco,37.7407961,-122.4037791,"(37.7407961, -122.4037791)"
188 Embarcadero San Francisco,37.7924314,-122.3917533,"(37.7924314, -122.3917533)"
550 Kearny St San Francisco,37.7932696,-122.4043477,"(37.7932696, -122.4043477)"
532 Green St San Francisco,37.7998471,-122.4080179,"(37.7998471, -122.4080179)"
4543 Mission St San Francisco,37.7254619,-122.4339596,"(37.7254619, -122.4339596)"
1022 Bush St San Francisco,37.7897222,-122.4142345,"(37.7897222, -122.4142345)"
3416 19th St San Francisco,37.7604112,-122.4197561,"(37.7604112, -122.4197561)"
2560 Marin St San Francisco,37.7486448,-122.4031587,"(37.7486448, -122.4031587)"
654 Mission St San Francisco,37.7871907,-122.4012378,"(37.7871907, -122.4012378)"
2101 Ingalls St San Francisco,37.7256947,-122.3866674,"(37.7256947, -122.3866674)"
2471 Mission St San Francisco,37.7575518,-122.4187301,"(37.7575518, -122.4187301)"
1222 Noriega St San Francisco,37.7544539,-122.4770136,"(37.7544539, -122.4770136)"
100 Montgomery St San Francisco,37.7903775,-122.4018618,"(37.7903775, -122.4018618)"
650 Gough St San Francisco,37.7794647,-122.4233429,"(37.7794647, -122.4233429)"
345 Williams Ave San Francisco,37.7297618,-122.3988423,"(37.7297618, -122.3988423)"
4000 24th St San Francisco,37.7515448,-122.4321196,"(37.7515448, -122.4321196)"
555 North Point St San Francisco,37.8060216,-122.4162944,"(37.8060216, -122.4162944)"
710 Florida St San Francisco,37.7602175,-122.4112856,"(37.7602175, -122.4112856)"
1416 Bush St San Francisco,37.7887737,-122.4206966,"(37.7887737, -122.4206966)"
41 Franklin St San Francisco,37.7748174,-122.4210362,"(37.7748174, -122.4210362)"
728 Vallejo St San Francisco,37.798696,-122.409397,"(37.798696, -122.409397)"
547 Hyde St San Francisco,37.7860617,-122.416602,"(37.7860617, -122.416602)"
1095 Hyde St San Francisco,37.7907129,-122.4177829,"(37.7907129, -122.4177829)"
1538 Fillmore St San Francisco,37.7838818,-122.4325603,"(37.7838818, -122.4325603)"
2022 Mission St San Francisco,37.7646126,-122.4199777,"(37.7646126, -122.4199777)"
3486 B Mission San Francisco,37.7409899,-122.4231715,"(37.7409899, -122.4231715)"
937 TARAVAL San Francisco,37.7428269,-122.4763872,"(37.7428269, -122.4763872)"
488 Haight St San Francisco,37.7723453,-122.4302742,"(37.7723453, -122.4302742)"
253 Church St San Francisco,37.766789,-122.4285536,"(37.766789, -122.4285536)"
1069 Pennsylvania Ave San Francisco,37.7530056,-122.3923596,"(37.7530056, -122.3923596)"
1525 Fillmore St San Francisco,37.7836649,-122.4329344,"(37.7836649, -122.4329344)"
425 Ellis St San Francisco,37.7845433,-122.4132401,"(37.7845433, -122.4132401)"
1398 09th Ave San Francisco,37.7623741,-122.4660355,"(37.7623741, -122.4660355)"
628 20th St San Francisco,37.7606934,-122.3881503,"(37.7606934, -122.3881503)"
370 Grove St San Francisco,37.7780739,-122.4225316,"(37.7780739, -122.4225316)"
1500 Irving St San Francisco,37.7638466,-122.4741211,"(37.7638466, -122.4741211)"
753 Alabama St San Francisco,37.7595126,-122.411448,"(37.7595126, -122.411448)"
2704 Mission St San Francisco,37.753635,-122.4188611,"(37.753635, -122.4188611)"
5201 03rd St San Francisco,37.730528,-122.3918626,"(37.730528, -122.3918626)"
2565 Mission St. San Francisco,37.7561132,-122.4185063,"(37.7561132, -122.4185063)"
364 Hayes St San Francisco,37.7772362,-122.4224061,"(37.7772362, -122.4224061)"
960 Cole St. San Francisco,37.7650623,-122.4495087,"(37.7650623, -122.4495087)"
488 Fell St San Francisco,37.7757376,-122.4258665,"(37.7757376, -122.4258665)"
244 Gough St San Francisco,37.775625,-122.4226127,"(37.775625, -122.4226127)"
1030 Irving St San Francisco,37.7641339,-122.4690854,"(37.7641339, -122.4690854)"
3242 Scott St San Francisco,37.7998723,-122.4409693,"(37.7998723, -122.4409693)"
1612 Ocean Ave San Francisco,37.7247893,-122.4593718,"(37.7247893, -122.4593718)"
3251 20th Ave 250I San Francisco,37.7278702,-122.4770819,"(37.7278702, -122.4770819)"
517 Hayes St San Francisco,37.7764533,-122.4250063,"(37.7764533, -122.4250063)"
5800 3rd St  C1001 San Francisco,37.7249591,-122.3958288,"(37.7249591, -122.3958288)"
401 A Judah St San Francisco,37.7619329,-122.466404,"(37.7619329, -122.466404)"
1201 Ortega St San Francisco,37.751987,-122.476828,"(37.751987, -122.476828)"
1030 Taraval St San Francisco,37.7431302,-122.477392,"(37.7431302, -122.477392)"
101 California St San Francisco,37.7928294,-122.3978806,"(37.7928294, -122.3978806)"
648 Pacific Ave San Francisco,37.797225,-122.406526,"(37.797225, -122.406526)"
1643 Pacific St San Francisco,37.7948343,-122.4223389,"(37.7948343, -122.4223389)"
717 Battery St 1st Floor San Francisco,37.7979212,-122.401301,"(37.7979212, -122.401301)"
464 CASTRO St San Francisco,37.7615021,-122.4353189,"(37.7615021, -122.4353189)"
3815 Noriega St San Francisco,37.7527776,-122.5045206,"(37.7527776, -122.5045206)"
2152 03rd St San Francisco,37.7623675,-122.3890607,"(37.7623675, -122.3890607)"
5323 Geary Blvd San Francisco,37.780169,-122.4766321,"(37.780169, -122.4766321)"
2605 Ocean Ave San Francisco,37.7315217,-122.4734705,"(37.7315217, -122.4734705)"
1000 Bush St San Francisco,37.7896824,-122.4140212,"(37.7896824, -122.4140212)"
560 Larkin St San Francisco,37.7831495,-122.417374,"(37.7831495, -122.417374)"
1455 Market St 11th Floor San Francisco,37.7752315,-122.4175278,"(37.7752315, -122.4175278)"
494 Haight St San Francisco,37.7723235,-122.4302372,"(37.7723235, -122.4302372)"
599 Skyline Blvd #2 Driving Range San Francisco,37.7098254,-122.497348,"(37.7098254, -122.497348)"
1515 Fillmore St San Francisco,37.7835413,-122.4329532,"(37.7835413, -122.4329532)"
1650 Holloway Ave C134 San Francisco,37.7223946,-122.4786143,"(37.7223946, -122.4786143)"
1342 Irving St San Francisco,37.7639941,-122.4724941,"(37.7639941, -122.4724941)"
1290 9th Ave San Francisco,37.764405,-122.466102,"(37.764405, -122.466102)"
311 California St San Francisco,37.7929446,-122.400294,"(37.7929446, -122.400294)"
4416 18th St San Francisco,37.7609087,-122.4386715,"(37.7609087, -122.4386715)"
914 Clement St San Francisco,37.7829465,-122.4691259,"(37.7829465, -122.4691259)"
5672 Mission St San Francisco,37.7105067,-122.4485379,"(37.7105067, -122.4485379)"
2800 California St #102 San Francisco,37.7882277,-122.4406831,"(37.7882277, -122.4406831)"
2095 Chestnut St San Francisco,37.8005024,-122.437723,"(37.8005024, -122.437723)"
3180 16th St San Francisco,37.7650635,-122.4237383,"(37.7650635, -122.4237383)"
4 Embarcadero Center San Francisco,37.7953898,-122.3961067,"(37.7953898, -122.3961067)"
50 California St San Francisco,37.7940487,-122.3973037,"(37.7940487, -122.3973037)"
300 Bayshore Blvd #A San Francisco,37.7430988,-122.4055891,"(37.7430988, -122.4055891)"
550 15th St Space #5 San Francisco,37.7674338,-122.406222,"(37.7674338, -122.406222)"
601 Van Ness Ave San Francisco,37.7811165,-122.4213309,"(37.7811165, -122.4213309)"
736 Clement St San Francisco,37.7830983,-122.4672038,"(37.7830983, -122.4672038)"
2116 Irving St San Francisco,37.7635394,-122.4807512,"(37.7635394, -122.4807512)"
1255 22nd St San Francisco,37.757133,-122.3941053,"(37.757133, -122.3941053)"
870 Market St San Francisco,37.7850854,-122.407624,"(37.7850854, -122.407624)"
345 Stockton St San Francisco,37.7891273,-122.4072368,"(37.7891273, -122.4072368)"
1247 Polk St San Francisco,37.7884488,-122.4205138,"(37.7884488, -122.4205138)"
2200 BRYANT St San Francisco,37.7590662,-122.4100872,"(37.7590662, -122.4100872)"
1535 FRANKLIN St San Francisco,37.7887999,-122.4239103,"(37.7887999, -122.4239103)"
32 06th St San Francisco,37.7816276,-122.4098252,"(37.7816276, -122.4098252)"
1631 20th St San Francisco,37.7598231,-122.3978595,"(37.7598231, -122.3978595)"
320 Bayshore Blvd San Francisco,37.7428285,-122.4057667,"(37.7428285, -122.4057667)"
2444 Noriega St San Francisco,37.7538685,-122.4900921,"(37.7538685, -122.4900921)"
2401 Mission St San Francisco,37.7585292,-122.4188471,"(37.7585292, -122.4188471)"
1422 Market St San Francisco,37.7762288,-122.4183475,"(37.7762288, -122.4183475)"
951 Irving St San Francisco,37.7637535,-122.4683002,"(37.7637535, -122.4683002)"
535 Octavia St San Francisco,37.7772013,-122.4250075,"(37.7772013, -122.4250075)"
480 Sutter St 1st Floor San Francisco,37.7894383,-122.4083783,"(37.7894383, -122.4083783)"
550 Alabama St San Francisco,37.7622032,-122.4123381,"(37.7622031999999, -122.4123381)"
353 Columbus Ave San Francisco,37.7983708,-122.4077662,"(37.7983708, -122.4077662)"
133 O'Farrell St San Francisco,37.7863803,-122.407264,"(37.7863803, -122.407264)"
1360 9th Ave San Francisco,37.762922,-122.4659696,"(37.762922, -122.4659696)"
100 ALEMANY BLVD. San Francisco,37.7357554,-122.4098815,"(37.7357554, -122.4098815)"
1200 Mason St San Francisco,37.7948302,-122.4112927,"(37.7948302, -122.4112927)"
295 B Orizaba Ave San Francisco,37.7141195,-122.4629756,"(37.7141195, -122.4629756)"
2701 Leavenworth St San Francisco,37.8060842,-122.4189129,"(37.8060842, -122.4189129)"
601 Broadway St San Francisco,37.7977123,-122.4071117,"(37.7977123, -122.4071117)"
532 Jones St San Francisco,37.7862967,-122.4127675,"(37.7862967, -122.4127675)"
532 Market St San Francisco,37.7905981,-122.400326,"(37.7905981, -122.400326)"
600 O'Farrell St San Francisco,37.7857271,-122.4148654,"(37.7857271, -122.4148654)"
2642  Ave San Francisco,27.5233343,-99.5006327,"(27.5233343, -99.5006327)"
1 Embarcadero Center San Francisco,37.7946507,-122.3998262,"(37.7946507, -122.3998262)"
1707 Powell St San Francisco,37.8004126,-122.4110914,"(37.8004126, -122.4110914)"
731 Irving St San Francisco,37.7638209,-122.4658233,"(37.7638209, -122.4658233)"
3224 22nd St San Francisco,37.7555401,-122.4194746,"(37.7555401, -122.4194746)"
1098 Sutter St San Francisco,37.7882245,-122.4183371,"(37.7882245, -122.4183371)"
919 Cortland Ave San Francisco,37.7391326,-122.4136929,"(37.7391326, -122.4136929)"
614 Pine St San Francisco,37.7915837,-122.4061135,"(37.7915837, -122.4061135)"
2124 Folsom St San Francisco,37.7632694,-122.4158164,"(37.7632694, -122.4158164)"
152 Kearny St San Francisco,37.7896003,-122.4036434,"(37.7896003, -122.4036434)"
1909 Union St San Francisco,37.7975272,-122.4308645,"(37.7975272, -122.4308645)"
1401 Polk St San Francisco,37.7897466,-122.4207877,"(37.7897466, -122.4207877)"
550 15th St Unit 1 San Francisco,37.7674338,-122.406222,"(37.7674338, -122.406222)"
1336 09th Ave San Francisco,37.7633462,-122.4660864,"(37.7633462, -122.4660864)"
2249 17th St San Francisco,37.7643422,-122.4062735,"(37.7643422, -122.4062735)"
5200 Geary Blvd San Francisco,37.7808371,-122.4757025,"(37.7808371, -122.4757025)"
4058 A 18th St San Francisco,37.7611444,-122.4340943,"(37.7611444, -122.4340943)"
296 Ocean Ave San Francisco,37.7230993,-122.4431596,"(37.7230993, -122.4431596)"
4423 Mission San Francisco,37.7273651,-122.4327814,"(37.7273651, -122.4327814)"
239 Powell St San Francisco,37.7869403,-122.4084919,"(37.7869403, -122.4084919)"
1365 Stockton St San Francisco,37.7984416,-122.4089695,"(37.7984416, -122.4089695)"
1150 Ocean Ave San Francisco,37.7238702,-122.4546242,"(37.7238702, -122.4546242)"
101 Horne Ave San Francisco,37.728103,-122.365154,"(37.728103, -122.365154)"
995 Valencia St San Francisco,37.757088,-122.4209783,"(37.757088, -122.4209783)"
236 Townsend St San Francisco,37.7782126,-122.3939394,"(37.7782126, -122.3939394)"
2739 Geary Blvd San Francisco,37.7820721,-122.448526,"(37.7820721, -122.448526)"
1750 fulton St San Francisco,37.7762543,-122.4456399,"(37.7762543, -122.4456399)"
401 Hayes St San Francisco,37.7766871,-122.423115,"(37.7766871, -122.423115)"
81 Jefferson St San Francisco,37.8083075,-122.4136339,"(37.8083075, -122.4136339)"
1077 Mission St San Francisco,37.7794599,-122.410275,"(37.7794599, -122.410275)"
958 Illinois St San Francisco,37.7597234,-122.3877473,"(37.7597234, -122.3877473)"
5411 3rd St San Francisco,37.7280551,-122.392706,"(37.7280551, -122.392706)"
5344 Geary Blvd San Francisco,37.7806806,-122.4770192,"(37.7806806, -122.4770192)"
776 Broadway St San Francisco,37.7976449,-122.4099439,"(37.7976449, -122.4099439)"
5351 GEARY Blvd San Francisco,37.7802718,-122.4770895,"(37.7802718, -122.4770895)"
77 McAllister St San Francisco,37.7807516,-122.413342,"(37.7807515999999, -122.413342)"
2080 Van Ness Ave San Francisco,37.7946006,-122.4229526,"(37.7946006, -122.4229526)"
1375 Fillmore St San Francisco,37.7821663,-122.4327686,"(37.7821663, -122.4327686)"
687 Geary St San Francisco,37.7864236,-122.4145779,"(37.7864236, -122.4145779)"
653 Clay St San Francisco,37.7943812,-122.4039902,"(37.7943812, -122.4039902)"
1362 Stockton St San Francisco,37.7984886,-122.4086339,"(37.7984886, -122.4086339)"
31 Cambon Dr San Francisco,37.7180712,-122.4742951,"(37.7180712, -122.4742951)"
3253 Mission St San Francisco,37.7446899,-122.4201651,"(37.7446899, -122.4201651)"
550 Grant Ave San Francisco,37.792116,-122.405704,"(37.792116, -122.405704)"
3251 20th Ave 102 San Francisco,37.7278702,-122.4770819,"(37.7278702, -122.4770819)"
1550 Hyde St San Francisco,37.795307,-122.418078,"(37.795307, -122.418078)"
1016 Bryant St San Francisco,37.7723643,-122.4076655,"(37.7723643, -122.4076655)"
131 06th St San Francisco,37.780747,-122.4081357,"(37.780747, -122.4081357)"
301 A Executive Park Blvd San Francisco,37.7115381,-122.3920784,"(37.7115381, -122.3920784)"
2203 Irving St San Francisco,37.7632327,-122.481726,"(37.7632327, -122.481726)"
3221 MISSION St San Francisco,37.745107,-122.4198625,"(37.745107, -122.4198625)"
1681 Church St San Francisco,37.7439832,-122.4265039,"(37.7439832, -122.4265039)"
638 Broadway St San Francisco,37.7980036,-122.4077129,"(37.7980036, -122.4077129)"
236 King St San Francisco,37.7777769,-122.3928104,"(37.7777769, -122.3928104)"
2 Embarcadero Center San Francisco,37.7947881,-122.3984101,"(37.7947881, -122.3984101)"
3585 California St San Francisco,37.7861918,-122.4528223,"(37.7861918, -122.4528223)"
719 Taraval St San Francisco,37.7429246,-122.4739677,"(37.7429245999999, -122.4739677)"
2 Trinity Pl San Francisco,37.7900607,-122.4024712,"(37.7900607, -122.4024712)"
2101 21st Ave San Francisco,37.7484035,-122.4785047,"(37.7484034999999, -122.4785047)"
1455 Market St 4th Fl San Francisco,37.7752315,-122.4175278,"(37.7752315, -122.4175278)"
5601 Geary Blvd San Francisco,37.7800392,-122.479592,"(37.7800392, -122.479592)"
733 Bush St San Francisco,37.7898252,-122.409464,"(37.7898252, -122.409464)"
720 14th St San Francisco,37.767923,-122.4295363,"(37.767923, -122.4295363)"
5800 03rd St  1004 San Francisco,37.7249591,-122.3958288,"(37.7249591, -122.3958288)"
2339 Clement St San Francisco,37.781835,-122.4845209,"(37.781835, -122.4845209)"
3033 24th St San Francisco,37.7524169,-122.4125985,"(37.7524169, -122.4125985)"
599 Skyline Blvd #1 Lakeside San Francisco,37.7112479,-122.4943783,"(37.7112479, -122.4943783)"
1838 UNION St San Francisco,37.7979882,-122.4296205,"(37.7979882, -122.4296205)"
701 Haight St San Francisco,37.771455,-122.433855,"(37.771455, -122.433855)"
5080 Mission St San Francisco,37.7172163,-122.4407409,"(37.7172163, -122.4407409)"
1300 Battery St San Francisco,37.8035072,-122.4018397,"(37.8035072, -122.4018397)"
4401 A Cabrillo St Suite A San Francisco,37.7732242,-122.5059311,"(37.7732242, -122.5059311)"
5155 03rd St San Francisco,37.7313931,-122.3916846,"(37.7313931, -122.3916846)"
16 California St San Francisco,37.7938297,-122.3967229,"(37.7938297, -122.3967229)"
5 LENOX Way San Francisco,37.7436078,-122.4646366,"(37.7436078, -122.4646366)"
3420 Judah St San Francisco,37.7609523,-122.4988951,"(37.7609523, -122.4988951)"
1455 Market St 5th Floor San Francisco,37.7752315,-122.4175278,"(37.7752315, -122.4175278)"
Soma Street @ 428 11th St. San Francisco,37.7697687,-122.4120492,"(37.7697687, -122.4120492)"
709 Larkin St San Francisco,37.7844515,-122.4179865,"(37.7844515, -122.4179865)"
2331 Chestnut St San Francisco,37.7998369,-122.4417389,"(37.7998369, -122.4417389)"
124 Columbus Ave San Francisco,37.7967858,-122.4048005,"(37.7967857999999, -122.4048005)"
1409 Polk St San Francisco,37.7897792,-122.4207087,"(37.7897792, -122.4207087)"
700 Columbus Ave San Francisco,37.8013389,-122.4113937,"(37.8013389, -122.4113937)"
"Pier 15, The Embarcadero San Francisco",37.8016649,-122.397348,"(37.8016649, -122.397348)"
195 Pine St San Francisco,37.7921467,-122.3994225,"(37.7921467, -122.3994225)"
801 22nd St San Francisco,37.7577471,-122.3895576,"(37.7577471, -122.3895576)"
4406 California St San Francisco,37.7851686,-122.4648815,"(37.7851686, -122.4648815)"
HUNTER'S POINT BLDG 110 San Francisco,37.7284883,-122.3640797,"(37.7284883, -122.3640797)"
705 Divisadero St San Francisco,37.7762013,-122.4382535,"(37.7762013, -122.4382535)"
185 Sutter St San Francisco,37.7896984,-122.4035399,"(37.7896984, -122.4035399)"
2100 Webster St San Francisco,37.7905249,-122.4321279,"(37.7905249, -122.4321279)"
3123 Clement St San Francisco,37.7814578,-122.4928714,"(37.7814578, -122.4928714)"
110 Yacht Rd San Francisco,37.805853,-122.4474678,"(37.805853, -122.4474678)"
2425 03rd St San Francisco,37.7589009,-122.3880397,"(37.7589009, -122.3880397)"
129 Ellis St San Francisco,37.7852592,-122.408542,"(37.7852592, -122.408542)"
377 Bay St Suite A San Francisco,37.805506,-122.4131469,"(37.805506, -122.4131469)"
98 09th St San Francisco,37.7762712,-122.4150016,"(37.7762712, -122.4150016)"
983 Valencia St San Francisco,37.7572426,-122.4210072,"(37.7572426, -122.4210072)"
2065 Polk St San Francisco,37.7957697,-122.4219803,"(37.7957697, -122.4219803)"
330 Ritch St San Francisco,37.7788603,-122.3938334,"(37.7788603, -122.3938334)"
2675 Geary Blvd San Francisco,37.7821682,-122.4464584,"(37.7821682, -122.4464584)"
2406 BRYANT St San Francisco,37.7557815,-122.409632,"(37.7557815, -122.409632)"
4080 18th St San Francisco,37.7611046,-122.4343457,"(37.7611046, -122.4343457)"
123 Battery St San Francisco,37.7927903,-122.4000408,"(37.7927903, -122.4000408)"
680 08th St Ste.#170 San Francisco,-23.2794928,-46.7202165,"(-23.2794928, -46.7202165)"
115 Sansome St San Francisco,37.7914251,-122.4010378,"(37.7914251, -122.4010378)"
195 05th Ave San Francisco,37.7849868,-122.4636995,"(37.7849868, -122.4636995)"
4829 Mission St San Francisco,37.7210201,-122.4373073,"(37.7210201, -122.4373073)"
1552 Ocean Ave San Francisco,37.7247663,-122.4590463,"(37.7247663, -122.4590463)"
1 Front St Annex Suite 100 San Francisco,37.7918198,-122.3989854,"(37.7918198, -122.3989854)"
5214 D Diamond Heights Blvd San Francisco,37.743714,-122.4399535,"(37.743714, -122.4399535)"
747 Market St San Francisco,37.7865509,-122.4043343,"(37.7865509, -122.4043343)"
3727 Geary Blvd San Francisco,37.7809413,-122.4594453,"(37.7809412999999, -122.4594453)"
4100 03rd St San Francisco,37.7403114,-122.3891112,"(37.7403114, -122.3891112)"
160 West Portal Ave San Francisco,37.7393436,-122.46792,"(37.7393436, -122.46792)"
954 Market St San Francisco,37.7832075,-122.4092656,"(37.7832075, -122.4092656)"
601 Van Ness Ave Suite K San Francisco,37.7817846,-122.4208606,"(37.7817846, -122.4208606)"
139 08th St San Francisco,-23.2826498,-46.7230772,"(-23.2826498, -46.7230772)"
701 Union St San Francisco,37.800059,-122.4110326,"(37.800059, -122.4110326)"
474 Columbus Ave San Francisco,37.7993836,-122.4084987,"(37.7993836, -122.4084987)"
5700 Geary Blvd San Francisco,37.7805,-122.4807219,"(37.7805, -122.4807219)"
Pier 39  Q-112 San Francisco,37.808673,-122.409821,"(37.808673, -122.409821)"
400 Haight St San Francisco,37.7724569,-122.428916,"(37.7724569, -122.428916)"
1290 Sutter St San Francisco,37.7877515,-122.4214273,"(37.7877515, -122.4214273)"
1099 Tennessee St San Francisco,37.7580604,-122.3891494,"(37.7580604, -122.3891494)"
3251 20th Ave #157 San Francisco,37.7278702,-122.4770819,"(37.7278702, -122.4770819)"
3420 Balboa St San Francisco,37.7759183,-122.4956456,"(37.7759183, -122.4956456)"
2919 16th St San Francisco,37.7650069,-122.4180221,"(37.7650069, -122.4180221)"
545 Sansome St 207B San Francisco,37.7954311,-122.4018947,"(37.7954311, -122.4018947)"
5668 03rd St San Francisco,37.7266905,-122.3940799,"(37.7266905, -122.3940799)"
397 Arguello Blvd San Francisco,37.7834402,-122.4592374,"(37.7834402, -122.4592374)"
1039 Ocean Ave San Francisco,37.7231785,-122.4537861,"(37.7231785, -122.4537861)"
6253 GEARY Blvd San Francisco,37.779964,-122.4864946,"(37.779964, -122.4864946)"
260 Divisadero St San Francisco,37.7715643,-122.4368537,"(37.7715643, -122.4368537)"
3643 Balboa St San Francisco,37.7754757,-122.4981518,"(37.7754757, -122.4981518)"
3088 24th St San Francisco,37.7526872,-122.4138355,"(37.7526872, -122.4138355)"
428 11th Street San Francisco,37.7697799,-122.4120353,"(37.7697799, -122.4120353)"
11 Phelan Ave San Francisco,37.7233708,-122.4524995,"(37.7233708, -122.4524995)"
3239 22nd St San Francisco,37.7552451,-122.4196896,"(37.7552451, -122.4196896)"
6050 Geary Blvd San Francisco,37.7803822,-122.4845563,"(37.7803822, -122.4845563)"
2565 03rd St Unit#310 San Francisco,37.7570539,-122.3878253,"(37.7570539, -122.3878253)"
2211 Filbert St San Francisco,37.7978964,-122.4359471,"(37.7978964, -122.4359471)"
644 Polk St San Francisco,37.7825993,-122.418809,"(37.7825993, -122.418809)"
655 Jackson St San Francisco,37.795924,-122.406004,"(37.795924, -122.406004)"
138 Minna St San Francisco,37.7869191,-122.4003207,"(37.7869191, -122.4003207)"
2199 Mission St San Francisco,37.7620338,-122.419119,"(37.7620338, -122.419119)"
2240 Mission St San Francisco,37.7611234,-122.4196413,"(37.7611234, -122.4196413)"
100 California St Suite 103 San Francisco,37.793949,-122.398062,"(37.793949, -122.398062)"
260 Kearny St San Francisco,37.7906054,-122.4037934,"(37.7906054, -122.4037934)"
1322 Grove St San Francisco,37.7758817,-122.4384168,"(37.7758817, -122.4384168)"
3717 Balboa St San Francisco,37.7754884,-122.4987752,"(37.7754884, -122.4987752)"
294 Turk St San Francisco,37.7830252,-122.4139404,"(37.7830252, -122.4139404)"
754 Post St San Francisco,37.7878243,-122.4143605,"(37.7878243, -122.4143605)"
Pier 33 Embarcadero San Francisco,37.8066566,-122.4044573,"(37.8066566, -122.4044573)"
1 Pagoda Pl San Francisco,37.7932632,-122.4073015,"(37.7932632, -122.4073015)"
1199 South Van Ness Ave San Francisco,37.7541284,-122.4162247,"(37.7541284, -122.4162247)"
2666 Ocean Ave San Francisco,37.7323821,-122.474348,"(37.7323821, -122.474348)"
499 Illinois St San Francisco,37.7659063,-122.3874446,"(37.7659063, -122.3874446)"
820 Cortland Ave San Francisco,37.7387321,-122.4142065,"(37.7387321, -122.4142065)"
2229 Clement St San Francisco,37.7817844,-122.4832761,"(37.7817844, -122.4832761)"
3400 Mission San Francisco,37.7421486,-122.4226268,"(37.7421486, -122.4226268)"
2014 Market St San Francisco,37.7692732,-122.4278335,"(37.7692732, -122.4278335)"
1551 Mission St San Francisco,37.7733778,-122.4180161,"(37.7733778, -122.4180161)"
1258 Minnesota St San Francisco,37.7543385,-122.3901851,"(37.7543385, -122.3901851)"
709 O'Farrell St San Francisco,37.7851687,-122.4166195,"(37.7851687, -122.4166195)"
170 King St #109 San Francisco,37.7788433,-122.3914892,"(37.7788433, -122.3914892)"
3600 Taraval St San Francisco,37.7420178,-122.5048188,"(37.7420178, -122.5048188)"
3251 20 Ave San Francisco,37.7278702,-122.4770819,"(37.7278702, -122.4770819)"
4 Embarcadero Center  Street Level San Francisco,37.7950111,-122.3978696,"(37.7950111, -122.3978696)"
1605 Polk St San Francisco,37.7916454,-122.4211114,"(37.7916454, -122.4211114)"
3251 Pierce St San Francisco,37.800117,-122.4397083,"(37.800117, -122.4397083)"
610 Long Bridge San Francisco,37.7735299,-122.3920561,"(37.7735299, -122.3920561)"
9 West Portal Ave San Francisco,37.7407215,-122.4659076,"(37.7407215, -122.4659076)"
718 Irving St San Francisco,37.7642556,-122.4656927,"(37.7642556, -122.4656927)"
2151 Lombard St San Francisco,37.7995086,-122.4368333,"(37.7995086, -122.4368333)"
2623 San Bruno Ave San Francisco,37.7286044,-122.4037543,"(37.7286044, -122.4037543)"
531 Commercial St San Francisco,37.7942474,-122.4019692,"(37.7942474, -122.4019692)"
2301 Market St San Francisco,37.7636603,-122.4332651,"(37.7636603, -122.4332651)"
3228 Sacramento St San Francisco,37.7885231,-122.4462501,"(37.7885231, -122.4462501)"
6909 Geary Blvd San Francisco,37.7793915,-122.4935823,"(37.7793915, -122.4935823)"
1509 SLOAT Blvd San Francisco,37.7335398,-122.4896466,"(37.7335398, -122.4896466)"
4039 18th St San Francisco,37.7608662,-122.4335871,"(37.7608662, -122.4335871)"
191 Pine St San Francisco,37.7921581,-122.3992625,"(37.7921581, -122.3992625)"
101 Montgomery St Suite 101C San Francisco,37.79053,-122.4025967,"(37.79053, -122.4025967)"
200 Leavenworth San Francisco,37.7830345,-122.4139362,"(37.7830345, -122.4139362)"
235 Front St San Francisco,37.7938961,-122.3991287,"(37.7938961, -122.3991287)"
2505 03rd St San Francisco,37.757722,-122.3879496,"(37.757722, -122.3879496)"
22 4th St San Francisco,37.7848142,-122.4056141,"(37.7848142, -122.4056141)"
672 Geary St San Francisco,37.786707,-122.4143269,"(37.786707, -122.4143269)"
1368 9th Ave San Francisco,37.7628171,-122.46601,"(37.7628171, -122.46601)"
2224 Union St San Francisco,37.7973977,-122.4361896,"(37.7973977, -122.4361896)"
14 Mint Plaza San Francisco,37.7826483,-122.4081569,"(37.7826483, -122.4081569)"
66 Dorman Ave San Francisco,37.7398459,-122.4034548,"(37.7398459, -122.4034548)"
5740 Geary Blvd San Francisco,37.7805143,-122.4812553,"(37.7805143, -122.4812553)"
1400 Yosemite Ave San Francisco,37.725025,-122.3879063,"(37.725025, -122.3879063)"
2800 California St  Unit 101 San Francisco,37.7882277,-122.4406831,"(37.7882277, -122.4406831)"
1000 Clement St San Francisco,37.7828456,-122.469957,"(37.7828456, -122.469957)"
189 06th Ave San Francisco,37.7852066,-122.4647575,"(37.7852066, -122.4647575)"
536 Mission St San Francisco,37.7892505,-122.3989058,"(37.7892505, -122.3989058)"
375 Taylor St San Francisco,37.7856453,-122.4115444,"(37.7856453, -122.4115444)"
2154 Mission St San Francisco,37.7625212,-122.4196978,"(37.7625211999999, -122.4196978)"
598 5th Ave San Francisco,37.7774343,-122.4626861,"(37.7774343, -122.4626861)"
800 Greenwich St San Francisco,37.8020026,-122.4131267,"(37.8020026, -122.4131267)"
1537 Ocean Ave San Francisco,37.7242689,-122.4588988,"(37.7242689, -122.4588988)"
301 Pine St San Francisco,37.7918225,-122.4012891,"(37.7918224999999, -122.4012891)"
579 Columbus Ave San Francisco,37.8000272,-122.4101269,"(37.8000272, -122.4101269)"
2237 Taraval St San Francisco,37.742416,-122.4902946,"(37.742416, -122.4902946)"
237 Ellis St San Francisco,37.7850983,-122.4101784,"(37.7850983, -122.4101784)"
348 Columbus Ave San Francisco,37.7984951,-122.4073208,"(37.7984951, -122.4073208)"
951 Clement St San Francisco,37.7825185,-122.4696084,"(37.7825184999999, -122.4696084)"
2109 Chestnut St San Francisco,37.8004055,-122.4381548,"(37.8004055, -122.4381548)"
1009 Guerrero St San Francisco,37.7548188,-122.4229605,"(37.7548188, -122.4229605)"
420 Montgomery St San Francisco,37.7933766,-122.40262,"(37.7933765999999, -122.40262)"
2282 MISSION St San Francisco,37.7605881,-122.4196852,"(37.7605881, -122.4196852)"
845 Market St Ste. 400 San Francisco,37.78451,-122.4067089,"(37.78451, -122.4067089)"
388 Market St #106 San Francisco,37.7922841,-122.3979603,"(37.7922841, -122.3979603)"
1401 Stockton St San Francisco,37.7986858,-122.4090436,"(37.7986858, -122.4090436)"
3481 18th St San Francisco,37.7615751,-122.4211574,"(37.7615751, -122.4211574)"
1755 Polk St San Francisco,37.7930561,-122.4214017,"(37.7930561, -122.4214017)"
1740 Church St San Francisco,37.7430875,-122.4268938,"(37.7430875, -122.4268938)"
3166 24th St San Francisco,37.7525937,-122.4156795,"(37.7525937, -122.4156795)"
1469 18th St San Francisco,37.762385,-122.3972869,"(37.7623849999999, -122.3972869)"
742 Valencia St San Francisco,37.7609227,-122.4218706,"(37.7609227, -122.4218706)"
724 La Playa St San Francisco,37.7748296,-122.5099744,"(37.7748296, -122.5099744)"
582 Sutter St San Francisco,37.7891754,-122.4099292,"(37.7891754, -122.4099292)"
531 Divisadero St San Francisco,37.7745086,-122.437982,"(37.7745086, -122.437982)"
1600 Stockton St San Francisco,37.8006479,-122.4089845,"(37.8006479, -122.4089845)"
2036 LOMBARD St San Francisco,37.8001389,-122.4354923,"(37.8001389, -122.4354923)"
773 Market St San Francisco,37.7858604,-122.4058072,"(37.7858604, -122.4058072)"
2240 Chestnut St San Francisco,37.8004938,-122.4401315,"(37.8004938, -122.4401315)"
390 CLEMENTINA St San Francisco,37.7810747,-122.4037422,"(37.7810747, -122.4037422)"
530 Valencia St San Francisco,37.764337,-122.4221275,"(37.764337, -122.4221275)"
314 Sutter St San Francisco,37.7898545,-122.4059315,"(37.7898545, -122.4059315)"
Pier 39  B-4 San Francisco,37.8102858,-122.4104103,"(37.8102858, -122.4104103)"
3801 Balboa St San Francisco,37.7752669,-122.4996677,"(37.7752669, -122.4996677)"
1198 Mission St San Francisco,37.7776451,-122.4131776,"(37.7776451, -122.4131776)"
1415 18th St San Francisco,37.7624555,-122.3968396,"(37.7624555, -122.3968396)"
121 Spear St A10 San Francisco,37.7918989,-122.3928335,"(37.7918989, -122.3928335)"
1170 Powell St San Francisco,37.7955458,-122.4097018,"(37.7955458, -122.4097018)"
3369 Mission St San Francisco,37.7426817,-122.4215423,"(37.7426817, -122.4215423)"
1355 Market St Suite 160 San Francisco,37.7767687,-122.4166164,"(37.7767687, -122.4166164)"
875 Stevenson St 2nd Floor San Francisco,37.776275,-122.4162807,"(37.776275, -122.4162807)"
4689 Mission St San Francisco,37.7232453,-122.4356177,"(37.7232452999999, -122.4356177)"
1285 Sutter St San Francisco,37.7873698,-122.4211978,"(37.7873698, -122.4211978)"
380 Bush St #4 San Francisco,37.7909262,-122.4038582,"(37.7909262, -122.4038582)"
2827 California St San Francisco,37.7877691,-122.4409675,"(37.7877691, -122.4409675)"
1900 Clement St San Francisco,37.7824205,-122.4797237,"(37.7824205, -122.4797237)"
1220 16th St San Francisco,37.766439,-122.3996147,"(37.766439, -122.3996147)"
3348 18th St San Francisco,37.7620791,-122.4181985,"(37.7620791, -122.4181985)"
2781 21st St San Francisco,37.7573963,-122.4104029,"(37.7573963, -122.4104029)"
293 Bayshore Blvd San Francisco,37.7431647,-122.4047934,"(37.7431647, -122.4047934)"
1668 Haight St San Francisco,37.7699343,-122.4497671,"(37.7699343, -122.4497671)"
2125 Polk St San Francisco,37.7963054,-122.4221592,"(37.7963054, -122.4221592)"
1919 Irving St San Francisco,37.7633712,-122.4785637,"(37.7633712, -122.4785637)"
100 California St San Francisco,37.793949,-122.398062,"(37.793949, -122.398062)"
965 Sutter St Suite C San Francisco,37.7880399,-122.4160793,"(37.7880399, -122.4160793)"
4808 Mission St San Francisco,37.7210847,-122.4378148,"(37.7210847, -122.4378148)"
2250 Keith St San Francisco,37.727053,-122.3913816,"(37.727053, -122.3913816)"
433 Kearny St San Francisco,37.7921459,-122.4045975,"(37.7921459, -122.4045975)"
641 Vallejo St San Francisco,37.7985318,-122.4083999,"(37.7985318, -122.4083999)"
98 Mission St San Francisco,37.7928351,-122.394126,"(37.7928351, -122.394126)"
659 Townsend St San Francisco,37.7706232,-122.4027668,"(37.7706232, -122.4027668)"
1455 Market St 9th Floor San Francisco,37.7752315,-122.4175278,"(37.7752315, -122.4175278)"
789 Mission St San Francisco,37.7847358,-122.4036914,"(37.7847358, -122.4036914)"
360 03rd St Suite 101 San Francisco,37.7826875,-122.3983425,"(37.7826875, -122.3983425)"
680 A 02nd St San Francisco,37.7807773,-122.3913243,"(37.7807773, -122.3913243)"
4068 18th St San Francisco,37.7610908,-122.4341939,"(37.7610908, -122.4341939)"
905 California St San Francisco,37.7914924,-122.4095468,"(37.7914924, -122.4095468)"
3655 Lawton St San Francisco,37.7566759,-122.5022956,"(37.7566759, -122.5022956)"
221 Powell St San Francisco,37.7867415,-122.4083384,"(37.7867415, -122.4083384)"
1145 Market St San Francisco,37.779401,-122.4132137,"(37.779401, -122.4132137)"
2428 San Bruno Ave San Francisco,37.7316871,-122.4055969,"(37.7316870999999, -122.4055969)"
313 Ivy St San Francisco,37.7772293,-122.4233794,"(37.7772292999999, -122.4233794)"
681 Broadway St San Francisco,37.7974917,-122.4082524,"(37.7974916999999, -122.4082524)"
1314 Noriega St San Francisco,37.7543657,-122.4778599,"(37.7543657, -122.4778599)"
711 Fillmore St San Francisco,37.7760343,-122.4314537,"(37.7760343, -122.4314537)"
852 Clement St San Francisco,37.7829562,-122.4685819,"(37.7829562, -122.4685819)"
1979 MISSION St San Francisco,37.7656325,-122.4194332,"(37.7656325, -122.4194332)"
675 Broadway St San Francisco,37.7975033,-122.4081757,"(37.7975033, -122.4081757)"
1358 Mason St San Francisco,37.7962227,-122.4115758,"(37.7962227, -122.4115758)"
181 03rd St San Francisco,37.7853041,-122.4005404,"(37.7853041, -122.4005404)"
992 Market St San Francisco,37.7825015,-122.4102784,"(37.7825015, -122.4102784)"
564 South Van Ness Ave San Francisco,37.764117,-122.417549,"(37.764117, -122.417549)"
102 South Park St San Francisco,37.7817154,-122.3942567,"(37.7817154, -122.3942567)"
777 Valencia St San Francisco,37.760565,-122.421188,"(37.760565, -122.421188)"
2200 Jerrold Ave Unit Z San Francisco,37.7457068,-122.3988245,"(37.7457068, -122.3988245)"
555 Market St 2nd Floor San Francisco,37.789999,-122.3999087,"(37.789999, -122.3999087)"
2257 Chestnut St San Francisco,37.8000966,-122.4404122,"(37.8000966, -122.4404122)"
495 Beach St San Francisco,37.8066876,-122.4167447,"(37.8066876, -122.4167447)"
2501 Phelps St San Francisco,37.7297001,-122.4002862,"(37.7297001, -122.4002862)"
3491 19th St San Francisco,37.7599926,-122.421119,"(37.7599926, -122.421119)"
231 Cortland Ave San Francisco,37.7396485,-122.4190081,"(37.7396485, -122.4190081)"
1007 Guerrero St San Francisco,37.7548912,-122.4228895,"(37.7548912, -122.4228895)"
655 Montgomery St San Francisco,37.7952457,-122.4035231,"(37.7952457, -122.4035231)"
388 Market St #104 San Francisco,37.7922841,-122.3979603,"(37.7922841, -122.3979603)"
1243 Noriega St San Francisco,37.7540332,-122.4772443,"(37.7540331999999, -122.4772443)"
"101 Horne Ave., Building 101, Rm.1501 San Francisco",37.9897092,-122.5666549,"(37.9897092, -122.5666549)"
239 Clement St San Francisco,37.7828398,-122.4618991,"(37.7828398, -122.4618991)"
3115 22nd St San Francisco,37.7553905,-122.4171241,"(37.7553905, -122.4171241)"
1 Market St Suite D San Francisco,37.7938462,-122.3948366,"(37.7938462, -122.3948366)"
1325 Fillmore St San Francisco,37.7819352,-122.4326789,"(37.7819352, -122.4326789)"
2347 03rd St San Francisco,37.7595199,-122.3881765,"(37.7595199, -122.3881765)"
1160 Howard St San Francisco,37.777049,-122.410983,"(37.777049, -122.410983)"
510 Stevenson St San Francisco,37.7817956,-122.4102587,"(37.7817956, -122.4102587)"
670 Larkin St San Francisco,37.7840687,-122.4175939,"(37.7840687, -122.4175939)"
1035 Geary Blvd San Francisco,37.7855236,-122.4217936,"(37.7855236, -122.4217936)"
1793 Haight St San Francisco,37.7692495,-122.4515792,"(37.7692495, -122.4515792)"
4166 24th St San Francisco,37.7513935,-122.435567,"(37.7513935, -122.435567)"
449 Castro St San Francisco,37.7617384,-122.4348251,"(37.7617384, -122.4348251)"
3868 24th St San Francisco,37.7517952,-122.4290163,"(37.7517952, -122.4290163)"
214 Sutter St San Francisco,37.7899444,-122.4041186,"(37.7899444, -122.4041186)"
499 Monterey Blvd San Francisco,37.731365,-122.4464548,"(37.731365, -122.4464548)"
1528 Fillmore St San Francisco,37.783751,-122.43249,"(37.783751, -122.43249)"
535 Florida St San Francisco,37.7624603,-122.4107182,"(37.7624603, -122.4107182)"
3303 Mission St San Francisco,37.7440006,-122.420591,"(37.7440006, -122.420591)"
2342 Clement St San Francisco,37.7822543,-122.4845442,"(37.7822543, -122.4845442)"
2836 Franklin St San Francisco,37.800718,-122.4258424,"(37.800718, -122.4258424)"
1401 18th St San Francisco,37.7624429,-122.3967113,"(37.7624429, -122.3967113)"
1970 Innes Ave San Francisco,37.7435928,-122.3950549,"(37.7435928, -122.3950549)"
1671 Haight St San Francisco,37.7694028,-122.4500787,"(37.7694028, -122.4500787)"
552 Green St San Francisco,37.7997979,-122.4083422,"(37.7997979, -122.4083422)"
826 Van Ness Ave San Francisco,37.7833384,-122.4205251,"(37.7833384, -122.4205251)"
1275 Market St San Francisco,37.7775512,-122.4156849,"(37.7775512, -122.4156849)"
2400 San Bruno Ave San Francisco,37.7320857,-122.4058587,"(37.7320857, -122.4058587)"
700 04th St San Francisco,37.7766692,-122.3948458,"(37.7766692, -122.3948458)"
101 Horne Ave Space 1501 San Francisco,38.2446074,-122.6720664,"(38.2446074, -122.6720664)"
845 Market St #FE13B San Francisco,37.7844257,-122.4064539,"(37.7844257, -122.4064539)"
568 Sacramento St San Francisco,37.7939842,-122.4025302,"(37.7939842, -122.4025302)"
488 A Hayes St San Francisco,37.7768629,-122.4243929,"(37.7768629, -122.4243929)"
3614 18th St San Francisco,37.7617876,-122.4243819,"(37.7617876, -122.4243819)"
451 Gough St San Francisco,37.7774698,-122.4233431,"(37.7774698, -122.4233431)"
523 Broadway St San Francisco,37.7978359,-122.4059645,"(37.7978359, -122.4059645)"
206 Valencia St San Francisco,37.7696369,-122.4225211,"(37.7696368999999, -122.4225211)"
"400 Howard St, Suite 110 San Francisco",37.789159,-122.3958824,"(37.789159, -122.3958824)"
3230 Mission St San Francisco,37.7451375,-122.4205013,"(37.7451375, -122.4205013)"
1555 Mariposa St San Francisco,37.763538,-122.3990598,"(37.763538, -122.3990598)"
406 Dewey Blvd San Francisco,37.7474148,-122.4595907,"(37.7474148, -122.4595907)"
2401 California St San Francisco,37.788691,-122.4339692,"(37.788691, -122.4339692)"
3900 03rd St San Francisco,37.7419128,-122.3885285,"(37.7419128, -122.3885285)"
1552 Polk St San Francisco,37.7913756,-122.4206243,"(37.7913755999999, -122.4206243)"
865 Market St  SP #307 San Francisco,37.7843918,-122.4070859,"(37.7843918, -122.4070859)"
321 A West Portal Ave San Francisco,37.7375493,-122.4692127,"(37.7375493, -122.4692127)"
1395 Noriega St San Francisco,37.75395,-122.4784549,"(37.75395, -122.4784549)"
1001 Market St San Francisco,37.781975,-122.4102571,"(37.781975, -122.4102571)"
685 Beach St San Francisco,37.8064634,-122.4200408,"(37.8064634, -122.4200408)"
2810 Diamond St San Francisco,37.7343029,-122.4341507,"(37.7343029, -122.4341507)"
37 Yerba Buena Ln San Francisco,37.7862298,-122.4042347,"(37.7862298, -122.4042347)"
917 Taraval St San Francisco,37.7428063,-122.4761137,"(37.7428063, -122.4761137)"
2511 Noriega St San Francisco,37.7534147,-122.4906289,"(37.7534147, -122.4906289)"
1032 Clement St San Francisco,37.7828502,-122.4704197,"(37.7828502, -122.4704197)"
555 Market St 6th Floor San Francisco,37.789999,-122.3999087,"(37.789999, -122.3999087)"
925 Kearny St San Francisco,37.7965317,-122.405408,"(37.7965317, -122.405408)"
2200 Jerrold St  Z San Francisco,37.7457068,-122.3988245,"(37.7457068, -122.3988245)"
1116 Polk St San Francisco,37.7871253,-122.419826,"(37.7871253, -122.419826)"
1042 Taraval St San Francisco,37.7431896,-122.4775176,"(37.7431896, -122.4775176)"
75 Francis St San Francisco,37.7270995,-122.4349247,"(37.7270995, -122.4349247)"
1701 Yosemite Ave San Francisco,37.7278218,-122.393814,"(37.7278218, -122.393814)"
1701 Greenwich St San Francisco,37.7998294,-122.4277466,"(37.7998294, -122.4277466)"
717 Monterey Blvd San Francisco,37.731375,-122.4515632,"(37.731375, -122.4515632)"
Various Farmers Markets San Francisco,37.795581,-122.393411,"(37.795581, -122.393411)"
431 2nd St San Francisco,37.7837031,-122.3943769,"(37.7837031, -122.3943769)"
1975 Bryant San Francisco,37.7621,-122.4100048,"(37.7621, -122.4100048)"
2652 Judah St San Francisco,37.7612225,-122.4907482,"(37.7612225, -122.4907482)"
407 Ellis St San Francisco,37.7847064,-122.4129611,"(37.7847064, -122.4129611)"
1 Ferry Building San Francisco,37.7955703,-122.3933208,"(37.7955703, -122.3933208)"
1782 Haight St San Francisco,37.7695784,-122.4514912,"(37.7695784, -122.4514912)"
301 Battery St San Francisco,37.7943448,-122.4006632,"(37.7943448, -122.4006632)"
2234 Chestnut St San Francisco,37.800473,-122.4400528,"(37.800473, -122.4400528)"
103 Waverly Pl San Francisco,37.7942984,-122.4069832,"(37.7942984, -122.4069832)"
1508 Taraval St San Francisco,37.7429759,-122.4823807,"(37.7429759, -122.4823807)"
329 Kearny St San Francisco,37.7911758,-122.4043595,"(37.7911758, -122.4043595)"
230 Bush St #128 San Francisco,37.7913315,-122.4014317,"(37.7913315, -122.4014317)"
2495 03rd St San Francisco,37.7581481,-122.3880873,"(37.7581481, -122.3880873)"
1428 Haight St San Francisco,37.7703358,-122.4459795,"(37.7703358, -122.4459795)"
1779 Lombard St San Francisco,37.8003011,-122.4306392,"(37.8003011, -122.4306392)"
50 Post St #58 San Francisco,37.7891638,-122.4029793,"(37.7891638, -122.4029793)"
1700 Post St K San Francisco,37.7857557,-122.4301162,"(37.7857557, -122.4301162)"
4004 03rd St San Francisco,37.741046,-122.3888444,"(37.741046, -122.3888444)"
1311 Noriega St San Francisco,37.754039,-122.4779405,"(37.754039, -122.4779405)"
2550 Mission St San Francisco,37.7562123,-122.4192281,"(37.7562123, -122.4192281)"
1862 Divisadero St San Francisco,37.7870348,-122.4400164,"(37.7870348, -122.4400164)"
757 Beach St San Francisco,37.8062955,-122.4213137,"(37.8062955, -122.4213137)"
2348 Polk St San Francisco,37.7985344,-122.4221337,"(37.7985344, -122.4221337)"
469 Castro St San Francisco,37.7615011,-122.4347903,"(37.7615011, -122.4347903)"
Private & Public San Francisco,37.7878613,-122.3994485,"(37.7878613, -122.3994485)"
500 Hayes St San Francisco,37.7767677,-122.424879,"(37.7767677, -122.424879)"
121 07th St San Francisco,37.778892,-122.4098392,"(37.778892, -122.4098392)"
225 Bush St #120 San Francisco,37.790841,-122.4012802,"(37.790841, -122.4012802)"
1081 Post St San Francisco,37.7866248,-122.4194997,"(37.7866248, -122.4194997)"
505 Sansome St Ste. 101 San Francisco,37.7950775,-122.4018261,"(37.7950775, -122.4018261)"
1220 Polk St San Francisco,37.788118,-122.4200396,"(37.788118, -122.4200396)"
1788 32nd Ave San Francisco,37.7538945,-122.4902181,"(37.7538945, -122.4902181)"
2049 Irving St San Francisco,37.7632177,-122.4802001,"(37.7632177, -122.4802001)"
798 South Van Ness Ave San Francisco,37.7605271,-122.4173785,"(37.7605271, -122.4173785)"
1550 Howard St San Francisco,37.7725108,-122.4166053,"(37.7725108, -122.4166053)"
2099 Folsom St San Francisco,37.7638409,-122.4149695,"(37.7638409, -122.4149695)"
1252 Valencia St San Francisco,37.7528328,-122.4210037,"(37.7528328, -122.4210037)"
1 Market St San Francisco,37.7938462,-122.3948366,"(37.7938462, -122.3948366)"
431 Balboa St San Francisco,37.7770116,-122.4635154,"(37.7770116, -122.4635154)"
2346 Chestnut St San Francisco,37.8002501,-122.4419978,"(37.8002501, -122.4419978)"
532 Jessie St San Francisco,37.7810569,-122.409959,"(37.7810569, -122.409959)"
1400 Taraval St San Francisco,37.7429546,-122.481231,"(37.7429546, -122.481231)"
411 Sansome St San Francisco,37.7941509,-122.4016017,"(37.7941509, -122.4016017)"
1594 Market St San Francisco,37.7744979,-122.4206025,"(37.7744979, -122.4206025)"
2328 Irving St San Francisco,37.763488,-122.4830652,"(37.763488, -122.4830652)"
525 Market St San Francisco,37.7905035,-122.3990296,"(37.7905035, -122.3990296)"
3565 20th St San Francisco,37.7583525,-122.4204104,"(37.7583525, -122.4204104)"
842 Valencia St San Francisco,37.7594044,-122.4216851,"(37.7594044, -122.4216851)"
5454 Mission St San Francisco,37.713125,-122.4445514,"(37.713125, -122.4445514)"
5501 California St San Francisco,37.7842798,-122.4764684,"(37.7842798, -122.4764684)"
1507 Sloat Blvd San Francisco,37.7335349,-122.4895636,"(37.7335349, -122.4895636)"
2298 Mission St San Francisco,37.7603733,-122.4195468,"(37.7603733, -122.4195468)"
3376 18th St San Francisco,37.7620433,-122.4188234,"(37.7620432999999, -122.4188234)"
1 United Nations Plaza San Francisco,37.7803868,-122.4129543,"(37.7803868, -122.4129543)"
1821 Haight St San Francisco,37.7690964,-122.4522929,"(37.7690964, -122.4522929)"
236 Clement St San Francisco,37.7833139,-122.4617809,"(37.7833139, -122.4617809)"
275 Battery St San Francisco,37.7938618,-122.4004554,"(37.7938617999999, -122.4004554)"
175 04th St San Francisco,37.7839352,-122.4030234,"(37.7839351999999, -122.4030234)"
555 Beach St San Francisco,37.8068426,-122.4181163,"(37.8068426, -122.4181163)"
3044 Taraval St San Francisco,37.742199,-122.498943,"(37.742199, -122.498943)"
360 Jessie St San Francisco,37.7833359,-122.4069933,"(37.7833359, -122.4069933)"
2335 03rd St San Francisco,37.7599343,-122.3884357,"(37.7599343, -122.3884357)"
1517 Pine St San Francisco,37.7894973,-122.420811,"(37.7894973, -122.420811)"
1524 Irving St San Francisco,37.7638936,-122.4744233,"(37.7638936, -122.4744233)"
1355 Market St 6/FL San Francisco,37.7767687,-122.4166164,"(37.7767687, -122.4166164)"
4697 Mission St San Francisco,37.7231549,-122.4356756,"(37.7231549, -122.4356756)"
890 Taraval St San Francisco,37.7432541,-122.4754751,"(37.7432541, -122.4754751)"
1355 Market St 10/F. San Francisco,37.7767687,-122.4166164,"(37.7767687, -122.4166164)"
3368 19th St San Francisco,37.7604353,-122.4186869,"(37.7604353, -122.4186869)"
233 14th St San Francisco,37.7681747,-122.4186408,"(37.7681747, -122.4186408)"
1111 Mission St San Francisco,37.7789481,-122.4111218,"(37.7789481, -122.4111218)"
1805 Geary Blvd San Francisco,37.7840042,-122.4331332,"(37.7840042, -122.4331332)"
115 Sansome San Francisco,37.7914251,-122.4010378,"(37.7914251, -122.4010378)"
2268 Chestnut St San Francisco,37.800418,-122.4406856,"(37.800418, -122.4406856)"
557 Howard St San Francisco,37.7873079,-122.3969757,"(37.7873079, -122.3969757)"
2537 24th St San Francisco,37.7529359,-122.404994,"(37.7529359, -122.404994)"
2295 Market St San Francisco,37.7644382,-122.4323947,"(37.7644382, -122.4323947)"
415 De Haro St Unit#105 San Francisco,37.7645926,-122.4013107,"(37.7645926, -122.4013107)"
400 California San Francisco,37.7932843,-122.401729,"(37.7932843, -122.401729)"
2341 Folsom St San Francisco,37.7598556,-122.4145754,"(37.7598556, -122.4145754)"
3128 16th St San Francisco,37.7650929,-122.4226936,"(37.7650929, -122.4226936)"
3 Embarcadero Center  Lobby Level San Francisco,37.7948167,-122.397348,"(37.7948167, -122.397348)"
211 Clement St San Francisco,37.7828746,-122.4615613,"(37.7828746, -122.4615613)"
1131 Stockton St San Francisco,37.7961469,-122.4086594,"(37.7961469, -122.4086594)"
1905 Mission St San Francisco,37.7665106,-122.4195391,"(37.7665106, -122.4195391)"
200 Larkin San Francisco,37.7802559,-122.4160525,"(37.7802559, -122.4160525)"
1420 Market St San Francisco,37.7762819,-122.4182533,"(37.7762819, -122.4182533)"
581 Eddy St San Francisco,37.7832317,-122.4171655,"(37.7832317, -122.4171655)"
839 Irving St San Francisco,37.7638411,-122.4670737,"(37.7638411, -122.4670737)"
3950 Sacramento St San Francisco,37.7871537,-122.4579983,"(37.7871537, -122.4579983)"
4581 Mission St San Francisco,37.7249279,-122.4343267,"(37.7249279, -122.4343267)"
3251 20th Ave 172 San Francisco,37.7278702,-122.4770819,"(37.7278702, -122.4770819)"
1330 Ocean Ave San Francisco,37.7242732,-122.4570181,"(37.7242732, -122.4570181)"
640 Jackson St San Francisco,37.796365,-122.40598,"(37.796365, -122.40598)"
201 suite 100 03rd St San Francisco,37.7850024,-122.4001972,"(37.7850024, -122.4001972)"
4625 Geary Blvd San Francisco,37.7805135,-122.469029,"(37.7805135, -122.469029)"
2174 Market St 1st Floor San Francisco,37.7667464,-122.4306068,"(37.7667464, -122.4306068)"
900 North Point St #E205 San Francisco,37.8059535,-122.4227645,"(37.8059535, -122.4227645)"
151 03rd St San Francisco,37.7859072,-122.4008003,"(37.7859072, -122.4008003)"
1368 Irving St San Francisco,37.7639853,-122.4726867,"(37.7639853, -122.4726867)"
3498 Cesar Chavez St San Francisco,37.7484867,-122.4199808,"(37.7484867, -122.4199808)"
768 Jackson St San Francisco,37.796143,-122.407796,"(37.796143, -122.407796)"
309 06th Ave San Francisco,37.7826778,-122.4646294,"(37.7826777999999, -122.4646294)"
2 Embarcadero Center  R-2203-4 San Francisco,37.7947881,-122.3984101,"(37.7947881, -122.3984101)"
55 05th St San Francisco,37.7834042,-122.4071673,"(37.7834042, -122.4071673)"
1530 Fillmore St San Francisco,37.7837814,-122.4328228,"(37.7837814, -122.4328228)"
62 Turk St San Francisco,37.7834453,-122.4101619,"(37.7834453, -122.4101619)"
1256 7th Ave San Francisco,37.7648767,-122.4639738,"(37.7648766999999, -122.4639738)"
301 Clay St San Francisco,37.7956165,-122.3992152,"(37.7956165, -122.3992152)"
297 Page St San Francisco,37.7735395,-122.4255711,"(37.7735395, -122.4255711)"
28 Waverly Pl San Francisco,37.7937329,-122.4065966,"(37.7937328999999, -122.4065966)"
Soma Street Food Park San Francisco,37.7697687,-122.4120492,"(37.7697687, -122.4120492)"
1051 Ocean Ave San Francisco,37.7232257,-122.45388,"(37.7232257, -122.45388)"
353 10th St San Francisco,37.7723146,-122.4118109,"(37.7723146, -122.4118109)"
2299 Market St  A San Francisco,37.7640511,-122.4327368,"(37.7640511, -122.4327368)"
2052 Mission St San Francisco,37.7641232,-122.4199663,"(37.7641232, -122.4199663)"
3251 20th Ave 250C San Francisco,37.7280844,-122.4767317,"(37.7280844, -122.4767317)"
240 Kearny St San Francisco,37.790402,-122.40376,"(37.790402, -122.40376)"
491 Bayshore St San Francisco,37.7403427,-122.4060421,"(37.7403427, -122.4060421)"
3213 Pierce St San Francisco,37.7996991,-122.4395812,"(37.7996991, -122.4395812)"
1920 Irving St San Francisco,37.7637743,-122.4786487,"(37.7637743, -122.4786487)"
1300 Haight St San Francisco,37.7705596,-122.4439704,"(37.7705596, -122.4439704)"
2045 Irving St San Francisco,37.763288,-122.4801185,"(37.763288, -122.4801185)"
2847 Mission St San Francisco,37.7514883,-122.4181169,"(37.7514883, -122.4181169)"
537 Octavia St San Francisco,37.7773228,-122.4250165,"(37.7773228, -122.4250165)"
1425 Folsom St San Francisco,37.772296,-122.412911,"(37.772296, -122.412911)"
1728 Buchanan St San Francisco,37.7860696,-122.429707,"(37.7860696, -122.429707)"
3106 16th St San Francisco,37.7650358,-122.4222559,"(37.7650358, -122.4222559)"
3463 16 St San Francisco,37.7642249,-122.4299686,"(37.7642248999999, -122.4299686)"
996 Mission St San Francisco,37.7812822,-122.4087,"(37.7812822, -122.4087)"
2000 Union St San Francisco,37.7977014,-122.4324277,"(37.7977014, -122.4324277)"
199 VALENCIA St San Francisco,37.770028,-122.422098,"(37.770028, -122.422098)"
346 Kearny St San Francisco,37.7914468,-122.40403,"(37.7914468, -122.40403)"
544 Clement St San Francisco,37.783173,-122.465245,"(37.783173, -122.465245)"
4995 Mission St San Francisco,37.7184849,-122.4392076,"(37.7184849, -122.4392076)"
2901 03rd St San Francisco,37.7524136,-122.3870014,"(37.7524136, -122.3870014)"
555 California St 51st Floor San Francisco,37.792062,-122.4036968,"(37.792062, -122.4036968)"
88 Colin P. Kelly Jr. St San Francisco,37.7822671,-122.3912479,"(37.7822671, -122.3912479)"
Pier 45  Shed B Space 1A San Francisco,37.8093233,-122.417095,"(37.8093233, -122.417095)"
Pier 45  Shed B Unit D San Francisco,37.8093233,-122.417095,"(37.8093233, -122.417095)"
1 Ferry Building  #50 San Francisco,37.7946507,-122.3998262,"(37.7946507, -122.3998262)"
711 #B Market St San Francisco,37.7870307,-122.4036949,"(37.7870307, -122.4036949)"
2174 Market St San Francisco,37.7667464,-122.4306068,"(37.7667464, -122.4306068)"
3092 16th St San Francisco,37.7651901,-122.4217307,"(37.7651901, -122.4217307)"
57 09th St San Francisco,37.7768668,-122.4153128,"(37.7768668, -122.4153128)"
50 Post St 1st Floor San Francisco,37.7891638,-122.4029793,"(37.7891638, -122.4029793)"
1 UNITED NATIONS Plz San Francisco,37.7803868,-122.4129543,"(37.7803868, -122.4129543)"
321 Kearny St San Francisco,37.7910708,-122.4043569,"(37.7910708, -122.4043569)"
63 Ellis St San Francisco,37.7854269,-122.4073472,"(37.7854269, -122.4073472)"
2351 Mission St San Francisco,37.759427,-122.4190124,"(37.759427, -122.4190124)"
474 Geary St San Francisco,37.7871024,-122.4110199,"(37.7871023999999, -122.4110199)"
3189 16th St San Francisco,37.7646471,-122.4237983,"(37.7646471, -122.4237983)"
4448 Mission St San Francisco,37.7265701,-122.4337024,"(37.7265701, -122.4337024)"
1310 09th Ave San Francisco,37.7637067,-122.4660185,"(37.7637067, -122.4660185)"
1534 California St San Francisco,37.7908597,-122.419732,"(37.7908597, -122.419732)"
601 South Van Ness Ave San Francisco,37.7634857,-122.4170818,"(37.7634857, -122.4170818)"
2174 Market St Basement San Francisco,37.7667464,-122.4306068,"(37.7667464, -122.4306068)"
1525 Pine St San Francisco,37.7893852,-122.4208425,"(37.7893852, -122.4208425)"
3111 24th St San Francisco,37.7522669,-122.414494,"(37.7522669, -122.414494)"
5913 03rd St San Francisco,37.7243945,-122.3945131,"(37.7243945, -122.3945131)"
2407 JUDAH St San Francisco,37.7610804,-122.4879193,"(37.7610804, -122.4879193)"
1 UNITED NATIONS PLAZA San Francisco,37.7803868,-122.4129543,"(37.7803868, -122.4129543)"
4950 Mission St San Francisco,37.719935,-122.4389773,"(37.719935, -122.4389773)"
1830 Ocean Ave San Francisco,37.7252648,-122.4615817,"(37.7252648, -122.4615817)"
1753 Carroll Ave San Francisco,37.7260712,-122.3955724,"(37.7260712, -122.3955724)"
174 Valencia St San Francisco,37.770346,-122.4227336,"(37.770346, -122.4227336)"
120 Green St San Francisco,37.8005313,-122.4018223,"(37.8005313, -122.4018223)"
325 Mason St  #10 San Francisco,37.7863931,-122.4099832,"(37.7863931, -122.4099832)"
528 Larkin St San Francisco,37.7827561,-122.4173036,"(37.7827561, -122.4173036)"
170 A South Van Ness St San Francisco,37.7707133,-122.4183889,"(37.7707133, -122.4183889)"
2522 Ocean Ave. San Francisco,37.7315635,-122.4725761,"(37.7315635, -122.4725761)"
2216 Polk St San Francisco,37.7971437,-122.4218583,"(37.7971437, -122.4218583)"
505 Howard St San Francisco,37.7879608,-122.3961165,"(37.7879608, -122.3961165)"
1201 Ocean Ave San Francisco,37.7234943,-122.455453,"(37.7234943, -122.455453)"
1428 Polk St San Francisco,37.7901112,-122.4204736,"(37.7901112, -122.4204736)"
2340 Geary Blvd San Francisco,37.7832064,-122.4418453,"(37.7832064, -122.4418453)"
Beach Chalet Soccer Field Parking Lot San Francisco,37.7673722,-122.5088147,"(37.7673722, -122.5088147)"
201 A Turk St San Francisco,37.7828752,-122.4125465,"(37.7828752, -122.4125465)"
4182 Mission St San Francisco,37.7302911,-122.4300522,"(37.7302911, -122.4300522)"
50 Post St San Francisco,37.7891638,-122.4029793,"(37.7891638, -122.4029793)"
2520 San Bruno Ave San Francisco,37.7296615,-122.4048103,"(37.7296615, -122.4048103)"
4828 Geary Blvd San Francisco,37.7809893,-122.4712923,"(37.7809893, -122.4712923)"
242 Columbus Ave San Francisco,37.7976266,-122.4058736,"(37.7976266, -122.4058736)"
289 08th St San Francisco,-23.2804763,-46.7219491,"(-23.2804763, -46.7219491)"
3751 Geary Blvd San Francisco,37.7809099,-122.4598456,"(37.7809099, -122.4598456)"
3319 Mission St San Francisco,37.7437383,-122.4207912,"(37.7437383, -122.4207912)"
1544 15th St San Francisco,37.7669669,-122.418759,"(37.7669669, -122.418759)"
